[{"name":"Wetpaint","category_code":"web","description":"","address1":"270 Lafayette Street","address2":"Suite 505","zip_code":"10012","city":"New York","state_code":"NY","country_code":"USA","latitude":40.7237306,"longitude":-73.9964312,"location":{"type":"Point","coordinates":[-73.9964312,40.7237306]}},{"name":"Joost","category_code":"games_video","description":"","address1":"100 5th Ave Fl 6","address2":"","zip_code":"10011-6903","city":"New York","state_code":"NY","country_code":"USA","latitude":40.7464969,"longitude":-74.0094471,"location":{"type":"Point","coordinates":[-74.0094471,40.7464969]}},{"name":"AddThis","category_code":"advertising","description":"New York Office","address1":"568 Broadway","address2":"11th Floor, Suite 1105","zip_code":"10012","city":"New York","state_code":"NY","country_code":"USA","latitude":40.724604,"longitude":-73.996876,"location":{"type":"Point","coordinates":[-73.996876,40.724604]}},{"name":"Kyte","category_code":"games_video","description":null,"address1":"442 Post Street","address2":"10th Floor","zip_code":"94102","city":"San Francisco","state_code":"CA","country_code":"USA","latitude":37.788482,"longitude":-122.409173,"location":{"type":"Point","coordinates":[-122.409173,37.788482]}},{"name":"Jingle Networks","category_code":"mobile","description":"","address1":"475 Park Ave South","address2":"10th Floor","zip_code":"10016","city":"New York","state_code":"NY","country_code":"USA","latitude":37.480999,"longitude":-122.173887,"location":{"type":"Point","coordinates":[-122.173887,37.480999]}},{"name":"Wesabe","category_code":"web","description":null,"address1":"400 Montgomery St, Suite 900","address2":null,"zip_code":"94104","city":"San Francisco","state_code":"CA","country_code":"USA","latitude":37.793148,"longitude":-122.402567,"location":{"type":"Point","coordinates":[-122.402567,37.793148]}},{"name":"Jajah","category_code":"mobile","description":"Jajah HQ","address1":"2513 Charleston Road","address2":"Suite 102","zip_code":"94043","city":"Mountain View","state_code":"CA","country_code":"USA","latitude":37.4233896,"longitude":-122.0899512,"location":{"type":"Point","coordinates":[-122.0899512,37.4233896]}},{"name":"Livestream","category_code":"games_video","description":"Livestream HQ","address1":"111 8th Avenue, #1509","address2":"","zip_code":"10011","city":"New York","state_code":"NY","country_code":"USA","latitude":40.726155,"longitude":-73.995625,"location":{"type":"Point","coordinates":[-73.995625,40.726155]}},{"name":"Ustream","category_code":"games_video","description":"San Francisco Office","address1":"410 Townsend","address2":"Suite 400","zip_code":"94107","city":"San Francisco","state_code":"CA","country_code":"USA","latitude":37.392936,"longitude":-122.07948,"location":{"type":"Point","coordinates":[-122.07948,37.392936]}},{"name":"Pando Networks","category_code":"games_video","description":null,"address1":"520 Broadway","address2":"10th Floor","zip_code":"10012","city":"New York","state_code":"NY","country_code":"USA","latitude":40.722655,"longitude":-73.99873,"location":{"type":"Point","coordinates":[-73.99873,40.722655]}},{"name":"Revision3","category_code":"games_video","description":"HQ","address1":"2415 3rd St","address2":"","zip_code":"94107","city":"San Francisco","state_code":"CA","country_code":"USA","latitude":37.757758,"longitude":-122.388243,"location":{"type":"Point","coordinates":[-122.388243,37.757758]}},{"name":"CastTV","category_code":"games_video","description":null,"address1":"374 Brannan St.","address2":null,"zip_code":"94107","city":"San Francisco","state_code":"CA","country_code":"USA","latitude":37.780716,"longitude":-122.393913,"location":{"type":"Point","coordinates":[-122.393913,37.780716]}},{"name":"iSkoot","category_code":"mobile","description":"iSkoot HQ","address1":"501 2nd Street","address2":"Suite 216","zip_code":"94107","city":"San Francisco","state_code":"CA","country_code":"USA","latitude":37.780134,"longitude":-122.396744,"location":{"type":"Point","coordinates":[-122.396744,37.780134]}},{"name":"Pageflakes","category_code":"web","description":null,"address1":"795 Folsom St","address2":"1st Floor","zip_code":"94114","city":"San Francisco","state_code":"CA","country_code":"USA","latitude":37.758113,"longitude":-122.414689,"location":{"type":"Point","coordinates":[-122.414689,37.758113]}},{"name":"Bebo","category_code":"web","description":"","address1":"425 Bush Street","address2":"Suite 200","zip_code":"94108","city":"San Francisco","state_code":"CA","country_code":"USA","latitude":37.782103,"longitude":-122.401116,"location":{"type":"Point","coordinates":[-122.401116,37.782103]}},{"name":"TheFind","category_code":"ecommerce","description":"","address1":"310 Villa Street","address2":"","zip_code":"94041","city":"Mountain View","state_code":"CA","country_code":"USA","latitude":37.391502,"longitude":-122.073463,"location":{"type":"Point","coordinates":[-122.073463,37.391502]}},{"name":"Dogster","category_code":"web","description":null,"address1":"555 De Haro Street, #350","address2":"","zip_code":"","city":"San Francisco","state_code":"CA","country_code":"USA","latitude":37.762681,"longitude":-122.400909,"location":{"type":"Point","coordinates":[-122.400909,37.762681]}},{"name":"adBrite","category_code":"advertising","description":null,"address1":"731 Market St. 5th Floor","address2":null,"zip_code":"94103","city":"San Francisco","state_code":"CA","country_code":"USA","latitude":37.779026,"longitude":-122.40184,"location":{"type":"Point","coordinates":[-122.40184,37.779026]}},{"name":"Loomia","category_code":"web","description":null,"address1":"900 Kearny St, Suite 299","address2":null,"zip_code":"94133","city":"San Francisco","state_code":"CA","country_code":"USA","latitude":37.796396,"longitude":-122.404869,"location":{"type":"Point","coordinates":[-122.404869,37.796396]}},{"name":"Meebo","category_code":"web","description":"Headquarters","address1":"215 Castro Street","address2":"3rd Floor","zip_code":"94041","city":"Mountain View","state_code":"CA","country_code":"USA","latitude":37.393679,"longitude":-122.079017,"location":{"type":"Point","coordinates":[-122.079017,37.393679]}},{"name":"Eventbrite","category_code":"web","description":"HQ","address1":"651 Brannan","address2":"Suite 110","zip_code":"94107","city":"San Francisco","state_code":"CA","country_code":"USA","latitude":37.779507,"longitude":-122.39071,"location":{"type":"Point","coordinates":[-122.39071,37.779507]}},{"name":"Seesmic","category_code":"web","description":"","address1":"1550 Bryant Street","address2":"Suite 890","zip_code":"94103","city":"San Francisco","state_code":"CA","country_code":"USA","latitude":37.775196,"longitude":-122.419204,"location":{"type":"Point","coordinates":[-122.419204,37.775196]}},{"name":"GoingOn","category_code":"software","description":"GoingOn Networks, Inc.","address1":"450 Sansome Street","address2":"12th Floor","zip_code":"94111","city":"San Francisco","state_code":"CA","country_code":"USA","latitude":37.782263,"longitude":-122.392142,"location":{"type":"Point","coordinates":[-122.392142,37.782263]}},{"name":"Flixster","category_code":"web","description":"","address1":"208 Utah St","address2":"","zip_code":"94103","city":"San Francisco","state_code":"CA","country_code":"USA","latitude":37.766909,"longitude":-122.406676,"location":{"type":"Point","coordinates":[-122.406676,37.766909]}},{"name":"hi5","category_code":"games_video","description":"","address1":"55 Second Street","address2":"Suite 400","zip_code":"94105","city":"San Francisco","state_code":"CA","country_code":"USA","latitude":37.788668,"longitude":-122.400558,"location":{"type":"Point","coordinates":[-122.400558,37.788668]}},{"name":"ScanScout","category_code":"advertising","description":"New York Office","address1":"450 Seventh Ave, Ste 209","address2":"","zip_code":"10011","city":"New York","state_code":"NY","country_code":"USA","latitude":40.739833,"longitude":-73.993158,"location":{"type":"Point","coordinates":[-73.993158,40.739833]}},{"name":"Curse","category_code":"games_video","description":"San Francisco","address1":"60 Broadway","address2":"","zip_code":"94111","city":"San Francisco","state_code":"CA","country_code":"USA","latitude":37.787092,"longitude":-122.399972,"location":{"type":"Point","coordinates":[-122.399972,37.787092]}},{"name":"PeerMe","category_code":"games_video","description":null,"address1":"2115 Landings Drive","address2":null,"zip_code":"94043","city":"Mountain View","state_code":"CA","country_code":"USA","latitude":37.419819,"longitude":-122.090188,"location":{"type":"Point","coordinates":[-122.090188,37.419819]}},{"name":"Kiptronic","category_code":"advertising","description":"","address1":"300 Montgomery St.","address2":"Ste. 860","zip_code":"94104","city":"San Francisco","state_code":"CA","country_code":"USA","latitude":37.792394,"longitude":-122.402349,"location":{"type":"Point","coordinates":[-122.402349,37.792394]}},{"name":"Lotame","category_code":"advertising","description":"New York Office","address1":"440 Ninth Ave","address2":"18th Floor","zip_code":"10001","city":"New York","state_code":"MD","country_code":"USA","latitude":40.753631,"longitude":-73.995487,"location":{"type":"Point","coordinates":[-73.995487,40.753631]}},{"name":"Tangler","category_code":"web","description":null,"address1":"800 W. El Camino Real","address2":"Suite 180","zip_code":"94040","city":"Mountain View","state_code":"CA","country_code":"USA","latitude":37.386665,"longitude":-122.084171,"location":{"type":"Point","coordinates":[-122.084171,37.386665]}},{"name":"IMVU","category_code":"web","description":"","address1":"200 West Evelyn Ave.","address2":"Suite 220","zip_code":"94041","city":"Mountain View","state_code":"CA","country_code":"USA","latitude":37.3927975,"longitude":-122.0727749,"location":{"type":"Point","coordinates":[-122.0727749,37.3927975]}},{"name":"Viagogo","category_code":"ecommerce","description":"","address1":"77 Battery St Fl 4","address2":"","zip_code":"94111-5540","city":"San Francisco","state_code":"CA","country_code":"USA","latitude":51.500152,"longitude":-0.126236,"location":{"type":"Point","coordinates":[-0.126236,51.500152]}},{"name":"Metacafe","category_code":"games_video","description":"","address1":"128 King Street","address2":"3rd Floor","zip_code":"94107","city":"San Francisco","state_code":"CA","country_code":"USA","latitude":37.437328,"longitude":-122.159928,"location":{"type":"Point","coordinates":[-122.159928,37.437328]}},{"name":"Kontera","category_code":"advertising","description":null,"address1":"1550 Bryant St. suite 975","address2":null,"zip_code":"94103","city":"San Francisco","state_code":"CA","country_code":"USA","latitude":37.767575,"longitude":-122.411157,"location":{"type":"Point","coordinates":[-122.411157,37.767575]}},{"name":"Dropbox","category_code":"software","description":"Headquarters","address1":"","address2":"185 Berry St 4th Floor","zip_code":"94107","city":"San Francisco","state_code":"CA","country_code":"USA","latitude":37.7909427,"longitude":-122.4084994,"location":{"type":"Point","coordinates":[-122.4084994,37.7909427]}},{"name":"Yola","category_code":"web","description":"Yola San Francisco","address1":"201 Mission Street","address2":"Suite 2250","zip_code":"94105","city":"San Francisco","state_code":"CA","country_code":"USA","latitude":37.7911148,"longitude":-122.3954751,"location":{"type":"Point","coordinates":[-122.3954751,37.7911148]}},{"name":"BitTorrent","category_code":"web","description":"","address1":"303 2nd Street","address2":"Suite S600","zip_code":"94107","city":"San Francisco","state_code":"CA","country_code":"USA","latitude":37.790998,"longitude":-122.394668,"location":{"type":"Point","coordinates":[-122.394668,37.790998]}},{"name":"Kongregate","category_code":"games_video","description":"","address1":"2 Shaw Alley","address2":"4th Floor","zip_code":"94105","city":"San Francisco","state_code":"CA","country_code":"USA","latitude":37.786942,"longitude":-122.401245,"location":{"type":"Point","coordinates":[-122.401245,37.786942]}},{"name":"DanceJam","category_code":"games_video","description":"","address1":"965 Mission Street","address2":"Suite 730","zip_code":"94103","city":"San Francisco","state_code":"CA","country_code":"USA","latitude":37.781557,"longitude":-122.407959,"location":{"type":"Point","coordinates":[-122.407959,37.781557]}},{"name":"Zivity","category_code":"network_hosting","description":"","address1":"329 Bryant Street","address2":"Suite 2D","zip_code":"94107","city":"San Francisco","state_code":"CA","country_code":"USA","latitude":37.789488,"longitude":-122.397593,"location":{"type":"Point","coordinates":[-122.397593,37.789488]}},{"name":"DotBlu","category_code":"web","description":"","address1":"360 Ritch St","address2":"Ste 205","zip_code":"94107-1747","city":"San Francisco","state_code":"CA","country_code":"USA","latitude":37.09024,"longitude":-95.712891,"location":{"type":"Point","coordinates":[-95.712891,37.09024]}},{"name":"Mevio","category_code":"games_video","description":"","address1":"577 2nd St Suite 203","address2":"","zip_code":"94107","city":"San Francisco","state_code":"CA","country_code":"USA","latitude":37.782263,"longitude":-122.392142,"location":{"type":"Point","coordinates":[-122.392142,37.782263]}},{"name":"Greystripe","category_code":"advertising","description":"Greystripe","address1":"160 Spear Street Fl 14","address2":"","zip_code":"94105","city":"San Francisco","state_code":"CA","country_code":"USA","latitude":37.710677,"longitude":-122.39323,"location":{"type":"Point","coordinates":[-122.39323,37.710677]}},{"name":"SpiralFrog","category_code":"games_video","description":null,"address1":"95 Morton Street","address2":"Ground Floor","zip_code":"10014","city":"New York","state_code":"NY","country_code":"USA","latitude":37.09024,"longitude":-95.712891,"location":{"type":"Point","coordinates":[-95.712891,37.09024]}},{"name":"Adknowledge","category_code":"advertising","description":"Adknowledge New York","address1":"7 Penn Plaza","address2":"370 Seventh Ave., 17th Fl.","zip_code":"10001","city":"New York","state_code":"NY","country_code":"USA","latitude":40.748901,"longitude":-73.992463,"location":{"type":"Point","coordinates":[-73.992463,40.748901]}},{"name":"Adknowledge","category_code":"advertising","description":"Adknowledge San Francisco","address1":"33 New Montgomery St.","address2":"Suite 220","zip_code":"94105","city":"San Francisco","state_code":"CA","country_code":"USA","latitude":37.78866,"longitude":-122.401406,"location":{"type":"Point","coordinates":[-122.401406,37.78866]}},{"name":"BBE","category_code":"advertising","description":"","address1":"245 Fifth Avenue","address2":"21st Floor","zip_code":"10016","city":"New York","state_code":"NY","country_code":"USA","latitude":40.7445343,"longitude":-73.9874008,"location":{"type":"Point","coordinates":[-73.9874008,40.7445343]}},{"name":"OMGPOP","category_code":"games_video","description":"","address1":"SoHo","address2":"","zip_code":"","city":"New York","state_code":"NY","country_code":"USA","latitude":40.723384,"longitude":-74.001704,"location":{"type":"Point","coordinates":[-74.001704,40.723384]}},{"name":"Crunchyroll","category_code":"games_video","description":"","address1":"","address2":"","zip_code":"94105","city":"San Francisco","state_code":"CA","country_code":"USA","latitude":37.781265,"longitude":-122.393229,"location":{"type":"Point","coordinates":[-122.393229,37.781265]}},{"name":"Ooyala","category_code":"analytics","description":"Corporate Headquarters","address1":"800 West El Camino Real","address2":"Suite 350","zip_code":"94040","city":"Mountain View","state_code":"CA","country_code":"USA","latitude":37.386665,"longitude":-122.084171,"location":{"type":"Point","coordinates":[-122.084171,37.386665]}},{"name":"Behance","category_code":"web","description":"","address1":"","address2":"","zip_code":"10012","city":"New York","state_code":"NY","country_code":"USA","latitude":40.74406,"longitude":-74.004592,"location":{"type":"Point","coordinates":[-74.004592,40.74406]}},{"name":"AdMob","category_code":"advertising","description":"Google, Inc","address1":"1600 Amphitheatre Parkway","address2":"","zip_code":"94043","city":"Mountain View","state_code":"CA","country_code":"USA","latitude":37.563585,"longitude":-122.324621,"location":{"type":"Point","coordinates":[-122.324621,37.563585]}},{"name":"Clickable","category_code":"advertising","description":"New York Office","address1":"7 West 22nd Street","address2":"7th Floor","zip_code":"10010","city":"New York","state_code":"NY","country_code":"USA","latitude":40.7413559,"longitude":-73.9912208,"location":{"type":"Point","coordinates":[-73.9912208,40.7413559]}},{"name":"Xobni","category_code":"software","description":"HQ","address1":"539 Bryant Street","address2":"Suite 402","zip_code":"94107","city":"San Francisco","state_code":"CA","country_code":"USA","latitude":37.789634,"longitude":-122.404052,"location":{"type":"Point","coordinates":[-122.404052,37.789634]}},{"name":"Worklight","category_code":"mobile","description":"","address1":"12 West 31st Street","address2":"","zip_code":"10001","city":"New York","state_code":"NY","country_code":"USA","latitude":40.756799,"longitude":-73.976348,"location":{"type":"Point","coordinates":[-73.976348,40.756799]}},{"name":"3Jam","category_code":"mobile","description":"","address1":"365 Vermont St","address2":"Unit B","zip_code":"94103-5060","city":"San Francisco","state_code":"CA","country_code":"USA","latitude":37.765125,"longitude":-122.4044034,"location":{"type":"Point","coordinates":[-122.4044034,37.765125]}},{"name":"FriendFeed","category_code":"web","description":"","address1":"333 W. Evelyn Ave","address2":"","zip_code":"94041","city":"Mountain View","state_code":"CA","country_code":"USA","latitude":37.39248,"longitude":-122.072612,"location":{"type":"Point","coordinates":[-122.072612,37.39248]}},{"name":"Wikinvest","category_code":"web","description":"","address1":"1085 Mission St","address2":"","zip_code":"94103-2812","city":"San Francisco","state_code":"CA","country_code":"USA","latitude":37.775196,"longitude":-122.419204,"location":{"type":"Point","coordinates":[-122.419204,37.775196]}},{"name":"Whiskey Media","category_code":"web","description":"HQ","address1":"921 Front St.","address2":"Suite #100","zip_code":"94111","city":"San Francisco","state_code":"CA","country_code":"USA","latitude":37.856331,"longitude":-122.495222,"location":{"type":"Point","coordinates":[-122.495222,37.856331]}},{"name":"RayV","category_code":"games_video","description":null,"address1":"150 West 77, Suite 4","address2":null,"zip_code":null,"city":"New York","state_code":"NY","country_code":"USA","latitude":40.781159,"longitude":-73.978332,"location":{"type":"Point","coordinates":[-73.978332,40.781159]}},{"name":"Polyvore","category_code":"web","description":"","address1":"","address2":"","zip_code":"","city":"Mountain View","state_code":"CA","country_code":"USA","latitude":37.386175,"longitude":-122.083487,"location":{"type":"Point","coordinates":[-122.083487,37.386175]}},{"name":"Blurb","category_code":"ecommerce","description":null,"address1":"580 California St.","address2":"Suite 300","zip_code":"94104","city":"San Francisco","state_code":"CA","country_code":"USA","latitude":37.792968,"longitude":-122.40414,"location":{"type":"Point","coordinates":[-122.40414,37.792968]}},{"name":"Tumblr","category_code":"web","description":null,"address1":"419 Park Ave. South, Suite 807","address2":null,"zip_code":"10016","city":"New York","state_code":"NY","country_code":"USA","latitude":40.743808,"longitude":-73.983626,"location":{"type":"Point","coordinates":[-73.983626,40.743808]}},{"name":"Automattic","category_code":"web","description":"Automattic Lounge","address1":"132 Hawthorne St","address2":"","zip_code":"94107","city":"San Francisco","state_code":"CA","country_code":"USA","latitude":37.744274,"longitude":-122.421344,"location":{"type":"Point","coordinates":[-122.421344,37.744274]}},{"name":"TrialPay","category_code":"advertising","description":"Headquarters","address1":"303 Bryant St.","address2":"2nd Floor","zip_code":"94041","city":"Mountain View","state_code":"CA","country_code":"USA","latitude":37.388095,"longitude":-122.08276,"location":{"type":"Point","coordinates":[-122.08276,37.388095]}},{"name":"eXelate","category_code":"advertising","description":"Headquarters","address1":"7 West 22nd Street","address2":"9th Floor","zip_code":"10010","city":"New York","state_code":"NY","country_code":"USA","latitude":40.741266,"longitude":-73.990753,"location":{"type":"Point","coordinates":[-73.990753,40.741266]}},{"name":"eXelate","category_code":"advertising","description":"San Francisco","address1":"156 2nd Street","address2":"","zip_code":"94105","city":"San Francisco","state_code":"CA","country_code":"USA","latitude":37.787249,"longitude":-122.3990501,"location":{"type":"Point","coordinates":[-122.3990501,37.787249]}},{"name":"Gydget","category_code":"web","description":null,"address1":"1 Front Street","address2":null,"zip_code":"94111","city":"San Francisco","state_code":"CA","country_code":"USA","latitude":37.791733,"longitude":-122.398398,"location":{"type":"Point","coordinates":[-122.398398,37.791733]}},{"name":"Songbird","category_code":"mobile","description":"","address1":"2 Shaw Alley","address2":"Second Floor","zip_code":"94105","city":"San Francisco","state_code":"CA","country_code":"USA","latitude":37.787126,"longitude":-122.39783,"location":{"type":"Point","coordinates":[-122.39783,37.787126]}},{"name":"Disqus","category_code":"web","description":"","address1":"301 Howard","address2":"3rd Floor","zip_code":"94105","city":"San Francisco","state_code":"CA","country_code":"USA","latitude":37.786906,"longitude":-122.397672,"location":{"type":"Point","coordinates":[-122.397672,37.786906]}},{"name":"Peer39","category_code":"advertising","description":"Headquarters","address1":"36 West 25th Street","address2":"2nd Floor","zip_code":"10010","city":"New York","state_code":"NY","country_code":"USA","latitude":40.755446,"longitude":-73.980246,"location":{"type":"Point","coordinates":[-73.980246,40.755446]}},{"name":"Vringo","category_code":"software","description":"HQ","address1":"780 Third Avenue","address2":"Fifteenth Floor","zip_code":"10017","city":"New York","state_code":"NY","country_code":"USA","latitude":40.7550005,"longitude":-73.9717364,"location":{"type":"Point","coordinates":[-73.9717364,40.7550005]}},{"name":"BrightRoll","category_code":"advertising","description":"Corporate Headquarters","address1":"343 Sansome St.","address2":"Suite 600","zip_code":"94104","city":"San Francisco","state_code":"CA","country_code":"USA","latitude":37.794643,"longitude":-122.401144,"location":{"type":"Point","coordinates":[-122.401144,37.794643]}},{"name":"Loopt","category_code":"mobile","description":"HQ","address1":"590 W. El Camino Real","address2":"","zip_code":"94040","city":"Mountain View","state_code":"CA","country_code":"USA","latitude":37.384717,"longitude":-122.081625,"location":{"type":"Point","coordinates":[-122.081625,37.384717]}},{"name":"Podaddies","category_code":"advertising","description":"","address1":"","address2":"","zip_code":"94103","city":"San Francisco","state_code":"CA","country_code":"USA","latitude":37.7726402,"longitude":-122.4099154,"location":{"type":"Point","coordinates":[-122.4099154,37.7726402]}},{"name":"Yieldex","category_code":"advertising","description":"","address1":"101 Fifth Avenue","address2":"Suite 605","zip_code":"10003","city":"New York","state_code":"NY","country_code":"USA","latitude":37.636288,"longitude":-122.42689,"location":{"type":"Point","coordinates":[-122.42689,37.636288]}},{"name":"GameLayers","category_code":"web","description":null,"address1":"1 Lombard Street","address2":"Suite 303","zip_code":"94111","city":"San Francisco","state_code":"CA","country_code":"USA","latitude":37.803847,"longitude":-122.402468,"location":{"type":"Point","coordinates":[-122.402468,37.803847]}},{"name":"WEbook","category_code":"web","description":"Business HQ","address1":"307 Fifth Avenue","address2":"Floor 7","zip_code":"10016","city":"New York","state_code":"NY","country_code":"USA","latitude":38.984172,"longitude":-77.095965,"location":{"type":"Point","coordinates":[-77.095965,38.984172]}},{"name":"Splunk","category_code":"software","description":"Headquarters","address1":"250 Brannan St.","address2":"","zip_code":"94107","city":"San Francisco","state_code":"CA","country_code":"USA","latitude":37.78274,"longitude":-122.390945,"location":{"type":"Point","coordinates":[-122.390945,37.78274]}},{"name":"Motionbox","category_code":"games_video","description":"","address1":"80 Broad St","address2":"28th Floor","zip_code":"10004","city":"New York","state_code":"NY","country_code":"USA","latitude":40.606061,"longitude":-73.822331,"location":{"type":"Point","coordinates":[-73.822331,40.606061]}},{"name":"Yodle","category_code":"advertising","description":"New York Office (HQ)","address1":"50 West 23rd Street","address2":"Suite 401","zip_code":"10010","city":"New York","state_code":"NY","country_code":"USA","latitude":40.742459,"longitude":-73.9918126,"location":{"type":"Point","coordinates":[-73.9918126,40.742459]}},{"name":"Dapper","category_code":"advertising","description":"Corporate Headquarters","address1":"290 King Street","address2":"","zip_code":"94107","city":"San Francisco","state_code":"CA","country_code":"USA","latitude":37.7766184,"longitude":-122.3938931,"location":{"type":"Point","coordinates":[-122.3938931,37.7766184]}},{"name":"CafeMom","category_code":"network_hosting","description":"CafeMom","address1":"401 Park Ave S","address2":"Fl 5","zip_code":"10016-8808","city":"New York","state_code":"NY","country_code":"USA","latitude":37.09024,"longitude":-95.712891,"location":{"type":"Point","coordinates":[-95.712891,37.09024]}},{"name":"BeliefNet","category_code":"web","description":null,"address1":"115 E 23rd Street","address2":null,"zip_code":"10010","city":"New York","state_code":"NY","country_code":"USA","latitude":40.740231,"longitude":-73.985433,"location":{"type":"Point","coordinates":[-73.985433,40.740231]}},{"name":"Kosmix","category_code":"web","description":"","address1":"","address2":"","zip_code":"94041","city":"Mountain View","state_code":"CA","country_code":"USA","latitude":37.3867729,"longitude":-122.0752224,"location":{"type":"Point","coordinates":[-122.0752224,37.3867729]}},{"name":"Ribbit","category_code":"mobile","description":"HQ","address1":"800 W. El Camino Real","address2":"Suite 250","zip_code":"94040","city":"Mountain View","state_code":"CA","country_code":"USA","latitude":37.386665,"longitude":-122.084171,"location":{"type":"Point","coordinates":[-122.084171,37.386665]}},{"name":"HubPages","category_code":"web","description":"San Francisco Office","address1":"95 Minna Street","address2":"3rd Floor","zip_code":"94105","city":"San Francisco","state_code":"CA","country_code":"USA","latitude":37.7876952,"longitude":-122.3991505,"location":{"type":"Point","coordinates":[-122.3991505,37.7876952]}},{"name":"ideeli","category_code":"ecommerce","description":"","address1":"620 8th Ave","address2":"45th Floor","zip_code":"10018","city":"New York","state_code":"NY","country_code":"USA","latitude":40.755978,"longitude":-73.990396,"location":{"type":"Point","coordinates":[-73.990396,40.755978]}},{"name":"WeShow","category_code":"games_video","description":null,"address1":null,"address2":null,"zip_code":"10017","city":"New York","state_code":"NY","country_code":"USA","latitude":40.752516,"longitude":-73.973072,"location":{"type":"Point","coordinates":[-73.973072,40.752516]}},{"name":"PlayFirst","category_code":"games_video","description":"HQ","address1":"160 Spear St","address2":"Suite 1300","zip_code":"94105","city":"San Francisco","state_code":"CA","country_code":"USA","latitude":37.790346,"longitude":-122.40185,"location":{"type":"Point","coordinates":[-122.40185,37.790346]}},{"name":"SimulScribe","category_code":"web","description":null,"address1":"110 East 59th Street","address2":"","zip_code":"10022","city":"New York","state_code":"NY","country_code":"USA","latitude":40.762673,"longitude":-73.969296,"location":{"type":"Point","coordinates":[-73.969296,40.762673]}},{"name":"TravelMuse","category_code":"web","description":"","address1":"55 Broad Street","address2":"24th Floor","zip_code":"10004","city":"New York","state_code":"NY","country_code":"USA","latitude":37.402802,"longitude":-122.117418,"location":{"type":"Point","coordinates":[-122.117418,37.402802]}},{"name":"LifeOnKey","category_code":"web","description":"HQ","address1":"419 Lafayette Street","address2":"2nd Floor","zip_code":"10003","city":"New York","state_code":"NY","country_code":"USA","latitude":37.09024,"longitude":-95.712891,"location":{"type":"Point","coordinates":[-95.712891,37.09024]}},{"name":"Scrapblog","category_code":"web","description":"","address1":"110 Sutter","address2":"Suite 700","zip_code":"94104","city":"San Francisco","state_code":"CA","country_code":"USA","latitude":25.752358,"longitude":-80.25468,"location":{"type":"Point","coordinates":[-80.25468,25.752358]}},{"name":"Meraki","category_code":"network_hosting","description":"","address1":"660 Alabama St.","address2":"","zip_code":"94110","city":"San Francisco","state_code":"CA","country_code":"USA","latitude":37.392443,"longitude":-122.072517,"location":{"type":"Point","coordinates":[-122.072517,37.392443]}},{"name":"Outspark","category_code":"games_video","description":null,"address1":null,"address2":null,"zip_code":null,"city":"San Francisco","state_code":"CA","country_code":"USA","latitude":37.775196,"longitude":-122.419204,"location":{"type":"Point","coordinates":[-122.419204,37.775196]}},{"name":"NuConomy","category_code":"advertising","description":"Headquarters","address1":"2000 Broadway St","address2":"","zip_code":"94115","city":"San Francisco","state_code":"CA","country_code":"USA","latitude":37.795191,"longitude":-122.430411,"location":{"type":"Point","coordinates":[-122.430411,37.795191]}},{"name":"yoonew","category_code":"web","description":null,"address1":"1412 Broadway Suite 1822","address2":null,"zip_code":"10018","city":"New York","state_code":"NY","country_code":"USA","latitude":40.75362,"longitude":-73.986557,"location":{"type":"Point","coordinates":[-73.986557,40.75362]}},{"name":"Zynga","category_code":"games_video","description":"SF HQ","address1":"365 Vermont St.","address2":"","zip_code":"94103","city":"San Francisco","state_code":"CA","country_code":"USA","latitude":37.765158,"longitude":-122.404234,"location":{"type":"Point","coordinates":[-122.404234,37.765158]}},{"name":"Roost","category_code":"software","description":"","address1":"50 Beale St. 10th Floor","address2":"","zip_code":"94105","city":"San Francisco","state_code":"CA","country_code":"USA","latitude":37.7891288,"longitude":-122.4020276,"location":{"type":"Point","coordinates":[-122.4020276,37.7891288]}},{"name":"clipsync","category_code":"web","description":"","address1":"Pier 33 South Embarcadero","address2":"Suite 201","zip_code":"94111","city":"San Francisco","state_code":"CA","country_code":"USA","latitude":37.2906027,"longitude":-121.9317853,"location":{"type":"Point","coordinates":[-121.9317853,37.2906027]}},{"name":"Lookery","category_code":"web","description":"West Coast","address1":"25 Kearny St","address2":"Suite 500","zip_code":"94108","city":"San Francisco","state_code":"CA","country_code":"USA","latitude":37.788266,"longitude":-122.403865,"location":{"type":"Point","coordinates":[-122.403865,37.788266]}},{"name":"stickK","category_code":"web","description":null,"address1":"39 East 30th Street","address2":"","zip_code":"10016","city":"New York","state_code":"NY","country_code":"USA","latitude":40.744837,"longitude":-73.983843,"location":{"type":"Point","coordinates":[-73.983843,40.744837]}},{"name":"TheLadders","category_code":"web","description":null,"address1":"137 Varick Street","address2":"Floor 8","zip_code":"10013","city":"New York","state_code":"NY","country_code":"USA","latitude":40.725883,"longitude":-74.006196,"location":{"type":"Point","coordinates":[-74.006196,40.725883]}},{"name":"doubleTwist","category_code":"software","description":"","address1":"568 Howard Street","address2":"","zip_code":"","city":"San Francisco","state_code":"CA","country_code":"USA","latitude":37.775196,"longitude":-122.419204,"location":{"type":"Point","coordinates":[-122.419204,37.775196]}},{"name":"MediaTrust","category_code":"advertising","description":"","address1":"404 Park Avenue South,","address2":"2nd floor","zip_code":"10016","city":"New York","state_code":"NY","country_code":"USA","latitude":40.743662,"longitude":-73.984268,"location":{"type":"Point","coordinates":[-73.984268,40.743662]}},{"name":"Raptr","category_code":"games_video","description":"","address1":"701 N Shoreline Blvd","address2":"","zip_code":"94043","city":"Mountain View","state_code":"CA","country_code":"USA","latitude":37.40384,"longitude":-122.07808,"location":{"type":"Point","coordinates":[-122.07808,37.40384]}},{"name":"Ad Infuse","category_code":"advertising","description":null,"address1":"550 Kearny Street, Suite 630","address2":"","zip_code":"94108","city":"San Francisco","state_code":"CA","country_code":"USA","latitude":37.793375,"longitude":-122.404571,"location":{"type":"Point","coordinates":[-122.404571,37.793375]}},{"name":"Inform Technologies","category_code":"web","description":"New York office","address1":"44 East 30th Street","address2":"11th Floor","zip_code":"10016","city":"New York","state_code":"NY","country_code":"USA","latitude":40.744639,"longitude":-73.983963,"location":{"type":"Point","coordinates":[-73.983963,40.744639]}},{"name":"SendMe","category_code":"mobile","description":"Corporate Headquarters","address1":"585 Howard Street","address2":"Third Floor","zip_code":"94105","city":"San Francisco","state_code":"CA","country_code":"USA","latitude":37.787126,"longitude":-122.39783,"location":{"type":"Point","coordinates":[-122.39783,37.787126]}},{"name":"Kluster","category_code":"web","description":"New York Office","address1":"3rd St & Ave A","address2":"","zip_code":"10016","city":"New York","state_code":"NY","country_code":"USA","latitude":40.723652,"longitude":-73.985281,"location":{"type":"Point","coordinates":[-73.985281,40.723652]}},{"name":"Blog Talk Radio","category_code":"web","description":null,"address1":"","address2":"","zip_code":"","city":"New York","state_code":"NY","country_code":"USA","latitude":40.757929,"longitude":-73.985506,"location":{"type":"Point","coordinates":[-73.985506,40.757929]}},{"name":"Tiny Pictures","category_code":"mobile","description":"","address1":"454 Natoma Street","address2":"","zip_code":"94103","city":"San Francisco","state_code":"CA","country_code":"USA","latitude":37.781002,"longitude":-122.406912,"location":{"type":"Point","coordinates":[-122.406912,37.781002]}},{"name":"Flurry","category_code":"advertising","description":"Flurry San Francisco","address1":"360 3rd Street","address2":"Suite 400","zip_code":"94107","city":"San Francisco","state_code":"CA","country_code":"USA","latitude":37.783046,"longitude":-122.394067,"location":{"type":"Point","coordinates":[-122.394067,37.783046]}},{"name":"OLX","category_code":"web","description":"","address1":"1 Half Moon Ln","address2":"Port Washington","zip_code":"11050-1210","city":"New York","state_code":"NY","country_code":"USA","latitude":40.8587524,"longitude":-73.7258199,"location":{"type":"Point","coordinates":[-73.7258199,40.8587524]}},{"name":"Right Media","category_code":"advertising","description":"Right Media LLC","address1":"45 West 18th Street","address2":"6th Floor","zip_code":"10011","city":"New York","state_code":"NY","country_code":"USA","latitude":40.74632,"longitude":-73.982607,"location":{"type":"Point","coordinates":[-73.982607,40.74632]}},{"name":"Sportgenic","category_code":"advertising","description":null,"address1":"1 Sansome st","address2":"15th Floor","zip_code":"94104","city":"San Francisco","state_code":"CA","country_code":"USA","latitude":37.790485,"longitude":-122.40094,"location":{"type":"Point","coordinates":[-122.40094,37.790485]}},{"name":"Phreesia","category_code":"software","description":null,"address1":"110 E. 23rd Street","address2":"4th Floor","zip_code":"10010","city":"New York","state_code":"NY","country_code":"USA","latitude":40.739794,"longitude":-73.985878,"location":{"type":"Point","coordinates":[-73.985878,40.739794]}},{"name":"99designs","category_code":"design","description":"United States (HQ)","address1":"447 Battery St.","address2":"3rd Floor","zip_code":"94111","city":"San Francisco","state_code":"CA","country_code":"USA","latitude":37.7955307,"longitude":-122.4005983,"location":{"type":"Point","coordinates":[-122.4005983,37.7955307]}},{"name":"LiveRail","category_code":"advertising","description":"Headquarters","address1":"575 Market St.","address2":"17th Floor","zip_code":"94105","city":"San Francisco","state_code":"CA","country_code":"USA","latitude":37.787183,"longitude":-122.397759,"location":{"type":"Point","coordinates":[-122.397759,37.787183]}},{"name":"Generate","category_code":"games_video","description":"New York","address1":"845 3rd Avenue","address2":"6th Floor, Suite 652","zip_code":"10022","city":"New York","state_code":"NY","country_code":"USA","latitude":40.7570972,"longitude":-73.969821,"location":{"type":"Point","coordinates":[-73.969821,40.7570972]}},{"name":"Innovid","category_code":"advertising","description":"NY Office","address1":"584 Broadway","address2":"Suite 1206","zip_code":"10012","city":"New York","state_code":"NY","country_code":"USA","latitude":40.722655,"longitude":-73.99873,"location":{"type":"Point","coordinates":[-73.99873,40.722655]}},{"name":"Tripology","category_code":"web","description":"","address1":"160 Madison Avenue","address2":"6th Floor","zip_code":"10016","city":"New York","state_code":"NY","country_code":"USA","latitude":40.746883,"longitude":-73.983969,"location":{"type":"Point","coordinates":[-73.983969,40.746883]}},{"name":"Giant Realm","category_code":"web","description":"HQ","address1":"1156 6th Ave,","address2":"3rd Floor","zip_code":"10036","city":"New York","state_code":"NY","country_code":"USA","latitude":40.7566658,"longitude":-73.9827553,"location":{"type":"Point","coordinates":[-73.9827553,40.7566658]}},{"name":"PopularMedia","category_code":"advertising","description":"HQ","address1":"1550 Bryant St.,","address2":"Suite 925","zip_code":"94103","city":"San Francisco","state_code":"CA","country_code":"USA","latitude":37.767575,"longitude":-122.411157,"location":{"type":"Point","coordinates":[-122.411157,37.767575]}},{"name":"Next New Networks","category_code":"web","description":"","address1":"22 W 21st St","address2":"10th Floor","zip_code":"10010","city":"New York","state_code":"NY","country_code":"USA","latitude":40.743808,"longitude":-73.983626,"location":{"type":"Point","coordinates":[-73.983626,40.743808]}},{"name":"Sprout","category_code":"advertising","description":"San Francisco Office","address1":"2601 Mission St","address2":"Suite 701","zip_code":"94110","city":"San Francisco","state_code":"CA","country_code":"USA","latitude":37.755012,"longitude":-122.418137,"location":{"type":"Point","coordinates":[-122.418137,37.755012]}},{"name":"kwiry","category_code":"mobile","description":"","address1":"47 Kearny St.","address2":"Ste 700","zip_code":"94108","city":"San Francisco","state_code":"CA","country_code":"USA","latitude":37.7885714,"longitude":-122.4035985,"location":{"type":"Point","coordinates":[-122.4035985,37.7885714]}},{"name":"Elastra","category_code":"software","description":"HQ","address1":"160 Pacific Ave Mall","address2":"Suite 222","zip_code":"94111","city":"San Francisco","state_code":"CA","country_code":"USA","latitude":37.791137,"longitude":-122.391843,"location":{"type":"Point","coordinates":[-122.391843,37.791137]}},{"name":"Krillion","category_code":"web","description":null,"address1":"607A W. Dana Street","address2":"","zip_code":"94041","city":"Mountain View","state_code":"CA","country_code":"USA","latitude":37.391727,"longitude":-122.077597,"location":{"type":"Point","coordinates":[-122.077597,37.391727]}},{"name":"Liftopia","category_code":"ecommerce","description":"","address1":"731 Market Street","address2":"2nd Floor","zip_code":"94108","city":"San Francisco","state_code":"CA","country_code":"USA","latitude":37.796164,"longitude":-122.420903,"location":{"type":"Point","coordinates":[-122.420903,37.796164]}},{"name":"Networked Insights","category_code":"analytics","description":"New York Offices","address1":"277 5th Avenue","address2":"6th Floor","zip_code":"10016","city":"New York","state_code":"NY","country_code":"USA","latitude":40.745559,"longitude":-73.986243,"location":{"type":"Point","coordinates":[-73.986243,40.745559]}},{"name":"Netbooks","category_code":"web","description":"","address1":"475 Sansome Street","address2":"Suite 510","zip_code":"94111","city":"San Francisco","state_code":"CA","country_code":"USA","latitude":37.79471,"longitude":-122.40195,"location":{"type":"Point","coordinates":[-122.40195,37.79471]}},{"name":"Clearwell Systems","category_code":"software","description":"HQ","address1":"441 Logue Ave.","address2":"","zip_code":"94043","city":"Mountain View","state_code":"CA","country_code":"USA","latitude":37.398022,"longitude":-122.049143,"location":{"type":"Point","coordinates":[-122.049143,37.398022]}},{"name":"Business Insider","category_code":"web","description":"","address1":"257 Park Ave South","address2":"","zip_code":"10010","city":"New York","state_code":"NY","country_code":"USA","latitude":40.73906,"longitude":-73.990911,"location":{"type":"Point","coordinates":[-73.990911,40.73906]}},{"name":"Zemanta","category_code":"web","description":"New York Office","address1":"33 West 17th St","address2":"Suite 903","zip_code":"10011","city":"New York","state_code":"NY","country_code":"USA","latitude":40.7387945,"longitude":-73.9939213,"location":{"type":"Point","coordinates":[-73.9939213,40.7387945]}},{"name":"Bonobos","category_code":"ecommerce","description":"","address1":"45 West 25th Street","address2":"5th Floor","zip_code":"10011","city":"New York","state_code":"NY","country_code":"USA","latitude":40.7384997,"longitude":-73.9954585,"location":{"type":"Point","coordinates":[-73.9954585,40.7384997]}},{"name":"Xoopit","category_code":"web","description":"HQ","address1":"2711 18th St","address2":"","zip_code":"94110","city":"San Francisco","state_code":"CA","country_code":"USA","latitude":37.7617955,"longitude":-122.4092704,"location":{"type":"Point","coordinates":[-122.4092704,37.7617955]}},{"name":"Cellufun","category_code":"games_video","description":"Worldwide HQ","address1":"33 West 19th Street","address2":"Suite 329","zip_code":"10011","city":"New York","state_code":"NY","country_code":"USA","latitude":40.73993,"longitude":-73.9930489,"location":{"type":"Point","coordinates":[-73.9930489,40.73993]}},{"name":"Spongecell","category_code":"advertising","description":"NYC Office","address1":"261 Madison Avenue, 14th Floor","address2":"","zip_code":"10016","city":"New York","state_code":"NY","country_code":"USA","latitude":37.773727,"longitude":-122.401537,"location":{"type":"Point","coordinates":[-122.401537,37.773727]}},{"name":"Placecast","category_code":"mobile","description":"","address1":"165 Page St.","address2":"","zip_code":"94102","city":"San Francisco","state_code":"CA","country_code":"USA","latitude":37.773688,"longitude":-122.423468,"location":{"type":"Point","coordinates":[-122.423468,37.773688]}},{"name":"Cellfish","category_code":"web","description":"","address1":"215 Lexington Avenue","address2":"","zip_code":"10016","city":"New York","state_code":"NY","country_code":"USA","latitude":40.761855,"longitude":-73.983754,"location":{"type":"Point","coordinates":[-73.983754,40.761855]}},{"name":"Marin Software","category_code":"advertising","description":"","address1":"123 Mission St.","address2":"25th Floor","zip_code":"94105","city":"San Francisco","state_code":"CA","country_code":"USA","latitude":37.792083,"longitude":-122.3946404,"location":{"type":"Point","coordinates":[-122.3946404,37.792083]}},{"name":"Boxbe","category_code":"web","description":"Main Office","address1":"2390 Chestnut Street, Suite 201","address2":"","zip_code":"94123","city":"San Francisco","state_code":"CA","country_code":"USA","latitude":37.800209,"longitude":-122.442592,"location":{"type":"Point","coordinates":[-122.442592,37.800209]}},{"name":"mySupermarket","category_code":"web","description":"","address1":"10 West 18th Street","address2":"7th Floor","zip_code":"10011","city":"New York","state_code":"NY","country_code":"USA","latitude":53.478714,"longitude":-2.244824,"location":{"type":"Point","coordinates":[-2.244824,53.478714]}},{"name":"RichRelevance","category_code":"ecommerce","description":"Corporate Headquarters","address1":"633 Folsom St.","address2":"4th Floor","zip_code":"94107","city":"San Francisco","state_code":"CO","country_code":"USA","latitude":37.7938969,"longitude":-122.4000965,"location":{"type":"Point","coordinates":[-122.4000965,37.7938969]}},{"name":"Mojiva","category_code":"mobile","description":"Headquaters","address1":"136 Baxter St","address2":"","zip_code":"10013","city":"New York","state_code":"NY","country_code":"USA","latitude":40.7185614,"longitude":-73.998662,"location":{"type":"Point","coordinates":[-73.998662,40.7185614]}},{"name":"GitHub","category_code":"software","description":"","address1":"275 Brannan St.","address2":"","zip_code":"94107","city":"San Francisco","state_code":"CA","country_code":"USA","latitude":37.775196,"longitude":-122.419204,"location":{"type":"Point","coordinates":[-122.419204,37.775196]}},{"name":"Globant","category_code":"software","description":"San Francisco","address1":"875 Howard St, 3rd floor, Of: 320","address2":"","zip_code":"94103","city":"San Francisco","state_code":"CA","country_code":"USA","latitude":37.7819286,"longitude":-122.4041764,"location":{"type":"Point","coordinates":[-122.4041764,37.7819286]}},{"name":"RealMatch","category_code":"advertising","description":"Headquarters-USA","address1":"90 Broad Street","address2":"","zip_code":"10004","city":"New York","state_code":"NY","country_code":"USA","latitude":39.047912,"longitude":-77.19544,"location":{"type":"Point","coordinates":[-77.19544,39.047912]}},{"name":"Apture","category_code":"web","description":"","address1":"539 Bryant St., Suite 401","address2":"","zip_code":"94107","city":"San Francisco","state_code":"CA","country_code":"USA","latitude":37.566042,"longitude":-122.322954,"location":{"type":"Point","coordinates":[-122.322954,37.566042]}},{"name":"InMobi","category_code":"mobile","description":"San Francisco","address1":"475 Brannan","address2":"Suite 420","zip_code":"94107","city":"San Francisco","state_code":"CA","country_code":"USA","latitude":37.4465496,"longitude":-122.1709208,"location":{"type":"Point","coordinates":[-122.1709208,37.4465496]}},{"name":"UserVoice","category_code":"software","description":"Headquarters","address1":"121 Second Street","address2":"Floor 4","zip_code":"94105","city":"San Francisco","state_code":"CA","country_code":"USA","latitude":36.9751032,"longitude":-122.0253784,"location":{"type":"Point","coordinates":[-122.0253784,36.9751032]}},{"name":"Aardvark","category_code":"web","description":null,"address1":"","address2":"","zip_code":"94110","city":"San Francisco","state_code":"CA","country_code":"USA","latitude":37.748676,"longitude":-122.415813,"location":{"type":"Point","coordinates":[-122.415813,37.748676]}},{"name":"Triggit","category_code":"advertising","description":"","address1":"1535 Mission St.","address2":"","zip_code":"94103","city":"San Francisco","state_code":"CA","country_code":"USA","latitude":37.771208,"longitude":-122.418129,"location":{"type":"Point","coordinates":[-122.418129,37.771208]}},{"name":"Serious Business","category_code":"games_video","description":"","address1":"580 Market Street","address2":"#600","zip_code":"94104","city":"San Francisco","state_code":"CA","country_code":"USA","latitude":37.7893215,"longitude":-122.4013624,"location":{"type":"Point","coordinates":[-122.4013624,37.7893215]}},{"name":"Kabam","category_code":"games_video","description":"HQ","address1":"795 Folsom Street","address2":"Suite 600","zip_code":"94107","city":"San Francisco","state_code":"CA","country_code":"USA","latitude":37.3944561,"longitude":-122.0785314,"location":{"type":"Point","coordinates":[-122.0785314,37.3944561]}},{"name":"New Relic","category_code":"software","description":"","address1":"","address2":"","zip_code":"","city":"San Francisco","state_code":"CA","country_code":"USA","latitude":37.269175,"longitude":-119.306607,"location":{"type":"Point","coordinates":[-119.306607,37.269175]}},{"name":"Zinch","category_code":"web","description":"San Francisco, CA","address1":"600 Townsend St, East Building","address2":"4th Floor","zip_code":"94103","city":"San Francisco","state_code":"CA","country_code":"USA","latitude":40.234451,"longitude":-111.658656,"location":{"type":"Point","coordinates":[-111.658656,40.234451]}},{"name":"Yoono","category_code":"web","description":"United States","address1":"300 De Haro St","address2":"South Train","zip_code":"94103","city":"San Francisco","state_code":"CA","country_code":"USA","latitude":37.787204,"longitude":-122.397884,"location":{"type":"Point","coordinates":[-122.397884,37.787204]}},{"name":"NewsCred","category_code":"advertising","description":"New York Office","address1":"27 W 24th Street, Suite 202","address2":"","zip_code":"10010","city":"New York","state_code":"NY","country_code":"USA","latitude":46.223157,"longitude":6.124424,"location":{"type":"Point","coordinates":[6.124424,46.223157]}},{"name":"Stitcher","category_code":"mobile","description":"HQ","address1":"121 2nd Street, 6th floor","address2":"","zip_code":"94105","city":"San Francisco","state_code":"CA","country_code":"USA","latitude":37.775196,"longitude":-122.419204,"location":{"type":"Point","coordinates":[-122.419204,37.775196]}},{"name":"TerraPass","category_code":"web","description":"","address1":"527 Howard St.","address2":"4th Floor","zip_code":"94105","city":"San Francisco","state_code":"CA","country_code":"USA","latitude":37.787445,"longitude":-122.397847,"location":{"type":"Point","coordinates":[-122.397847,37.787445]}},{"name":"Transpera","category_code":"mobile","description":"","address1":"785 Market St.","address2":"Suite 750","zip_code":"94103","city":"San Francisco","state_code":"CA","country_code":"USA","latitude":37.785792,"longitude":-122.405081,"location":{"type":"Point","coordinates":[-122.405081,37.785792]}},{"name":"Bizo","category_code":"advertising","description":"Corp HQ","address1":"225 Bush St.","address2":"Suite #1150","zip_code":"94104","city":"San Francisco","state_code":"CA","country_code":"USA","latitude":37.7911186,"longitude":-122.4011706,"location":{"type":"Point","coordinates":[-122.4011706,37.7911186]}},{"name":"PurePlay","category_code":"games_video","description":null,"address1":"","address2":"","zip_code":"","city":"San Francisco","state_code":"CA","country_code":"USA","latitude":37.775196,"longitude":-122.419204,"location":{"type":"Point","coordinates":[-122.419204,37.775196]}},{"name":"Aruspex","category_code":"software","description":"US Headquarters","address1":"100 Montgomery St, Suite 1100","address2":"","zip_code":"94104","city":"San Francisco","state_code":"CA","country_code":"USA","latitude":37.790346,"longitude":-122.40185,"location":{"type":"Point","coordinates":[-122.40185,37.790346]}},{"name":"appssavvy","category_code":"advertising","description":"Headquarters","address1":"594 Broadway","address2":"Suite 207","zip_code":"10012","city":"New York","state_code":"NY","country_code":"USA","latitude":40.724604,"longitude":-73.996876,"location":{"type":"Point","coordinates":[-73.996876,40.724604]}},{"name":"BrandYourself","category_code":"web","description":"","address1":"120 Walker St","address2":"FL 2","zip_code":"10013","city":"New York","state_code":"NY","country_code":"USA","latitude":42.275263,"longitude":-71.24762,"location":{"type":"Point","coordinates":[-71.24762,42.275263]}},{"name":"StartForce","category_code":"web","description":null,"address1":"","address2":"","zip_code":"94109","city":"San Francisco","state_code":"CA","country_code":"USA","latitude":37.796164,"longitude":-122.420903,"location":{"type":"Point","coordinates":[-122.420903,37.796164]}},{"name":"The Receivables Exchange","category_code":"ecommerce","description":"New York Office","address1":"437 Madison Avenue, 28th Floor","address2":"","zip_code":"10022","city":"New York","state_code":"NY","country_code":"USA","latitude":40.757651,"longitude":-73.9752768,"location":{"type":"Point","coordinates":[-73.9752768,40.757651]}},{"name":"HealthiNation","category_code":"web","description":"HealthiNation","address1":"35 East 21st Street","address2":"Suite 6E","zip_code":"10010","city":"New York","state_code":"NY","country_code":"USA","latitude":40.739341,"longitude":-73.988357,"location":{"type":"Point","coordinates":[-73.988357,40.739341]}},{"name":"Boxee","category_code":"software","description":"US Headquarters","address1":"122 West 26th Street","address2":"8th Floor","zip_code":"10001","city":"New York","state_code":"NY","country_code":"USA","latitude":40.745064,"longitude":-73.992637,"location":{"type":"Point","coordinates":[-73.992637,40.745064]}},{"name":"Jibe Mobile","category_code":"mobile","description":"Headquarters","address1":"990 N Rengstorff Ave","address2":"","zip_code":"94043","city":"Mountain View","state_code":"CA","country_code":"USA","latitude":37.4186097,"longitude":-122.0937686,"location":{"type":"Point","coordinates":[-122.0937686,37.4186097]}},{"name":"SpikeSource","category_code":"software","description":"Corporate Headquarters","address1":"450 Clyde Ave","address2":"","zip_code":"94043","city":"Mountain View","state_code":"CA","country_code":"USA","latitude":37.510805,"longitude":-122.203744,"location":{"type":"Point","coordinates":[-122.203744,37.510805]}},{"name":"Keibi Technologies","category_code":"software","description":"","address1":"685 Market Street","address2":"Suite 300","zip_code":"94105","city":"San Francisco","state_code":"CA","country_code":"USA","latitude":37.787646,"longitude":-122.402759,"location":{"type":"Point","coordinates":[-122.402759,37.787646]}},{"name":"BountyJobs","category_code":"web","description":"World Headquarters","address1":"230 W 41st street","address2":"14th Floor","zip_code":"10036","city":"New York","state_code":"NY","country_code":"USA","latitude":40.754211,"longitude":-73.97917,"location":{"type":"Point","coordinates":[-73.97917,40.754211]}},{"name":"OkCupid","category_code":"web","description":"","address1":"39 W 14th St","address2":"Ste 502","zip_code":"10011-7403","city":"New York","state_code":"NY","country_code":"USA","latitude":40.7368158,"longitude":-73.9955426,"location":{"type":"Point","coordinates":[-73.9955426,40.7368158]}},{"name":"My Damn Channel","category_code":"games_video","description":"My Damn Channel, Inc.","address1":"202 W. 40th St.","address2":"16th Floor","zip_code":"10018","city":"New York","state_code":"NY","country_code":"USA","latitude":40.754762,"longitude":-73.988543,"location":{"type":"Point","coordinates":[-73.988543,40.754762]}},{"name":"Posterous","category_code":"web","description":"","address1":"","address2":"","zip_code":"","city":"San Francisco","state_code":"CA","country_code":"USA","latitude":37.775196,"longitude":-122.419204,"location":{"type":"Point","coordinates":[-122.419204,37.775196]}},{"name":"Open Places","category_code":"web","description":"San Francisco Office","address1":"616 Arkansas St","address2":"","zip_code":"94107","city":"San Francisco","state_code":"CA","country_code":"USA","latitude":37.758352,"longitude":-122.398379,"location":{"type":"Point","coordinates":[-122.398379,37.758352]}},{"name":"Genbook","category_code":"web","description":"Genbook","address1":"548 Market Street","address2":"","zip_code":"94104","city":"San Francisco","state_code":"CA","country_code":"USA","latitude":37.789902,"longitude":-122.4007791,"location":{"type":"Point","coordinates":[-122.4007791,37.789902]}},{"name":"Flowgram","category_code":"web","description":"","address1":"650 Townsend Street,","address2":"Suite 315,","zip_code":"94103","city":"San Francisco","state_code":"CA","country_code":"USA","latitude":37.7710177,"longitude":-122.4025976,"location":{"type":"Point","coordinates":[-122.4025976,37.7710177]}},{"name":"Medialets","category_code":"advertising","description":"","address1":"","address2":"","zip_code":"","city":"New York","state_code":"NY","country_code":"USA","latitude":40.756054,"longitude":-73.986951,"location":{"type":"Point","coordinates":[-73.986951,40.756054]}},{"name":"Medialets","category_code":"advertising","description":"","address1":"","address2":"","zip_code":"","city":"San Francisco","state_code":"CA","country_code":"USA","latitude":37.775196,"longitude":-122.419204,"location":{"type":"Point","coordinates":[-122.419204,37.775196]}},{"name":"Bitly","category_code":"web","description":"","address1":"","address2":"","zip_code":"","city":"New York","state_code":"NY","country_code":"USA","latitude":40.74034,"longitude":-74.00721,"location":{"type":"Point","coordinates":[-74.00721,40.74034]}},{"name":"Involver","category_code":"software","description":"Corporate Headquarters","address1":"611 Mission St","address2":"7th Floor","zip_code":"94105","city":"San Francisco","state_code":"CA","country_code":"USA","latitude":37.788653,"longitude":-122.401333,"location":{"type":"Point","coordinates":[-122.401333,37.788653]}},{"name":"Zendesk","category_code":"software","description":"Headquarters","address1":"989 Market St","address2":"St 300","zip_code":"94102","city":"San Francisco","state_code":"CA","country_code":"USA","latitude":55.676294,"longitude":12.568116,"location":{"type":"Point","coordinates":[12.568116,55.676294]}},{"name":"Streetline","category_code":"hardware","description":"Corporate Headquarters","address1":"49 Stevenson St.","address2":"3rd Floor","zip_code":"94105","city":"San Francisco","state_code":"CA","country_code":"USA","latitude":37.782085,"longitude":-122.409747,"location":{"type":"Point","coordinates":[-122.409747,37.782085]}},{"name":"muzu tv","category_code":"web","description":"New York Office","address1":"345 Park Avenue","address2":"17th Floor","zip_code":"10154-0037","city":"New York","state_code":"NY","country_code":"USA","latitude":40.757716,"longitude":-73.972321,"location":{"type":"Point","coordinates":[-73.972321,40.757716]}},{"name":"trueAnthem","category_code":"advertising","description":"Mailing Address","address1":"PO Box 330536","address2":"","zip_code":"94133","city":"San Francisco","state_code":"CA","country_code":"USA","latitude":37.8059887,"longitude":-122.4099154,"location":{"type":"Point","coordinates":[-122.4099154,37.8059887]}},{"name":"Lexy","category_code":"games_video","description":"Corporate Headquarters","address1":"589 Howard Street","address2":"Fifth Floor","zip_code":"94105","city":"San Francisco","state_code":"CA","country_code":"USA","latitude":37.786906,"longitude":-122.397672,"location":{"type":"Point","coordinates":[-122.397672,37.786906]}},{"name":"Minted","category_code":"ecommerce","description":"","address1":"747 Front Street","address2":"2nd Floor","zip_code":"94111","city":"San Francisco","state_code":"CA","country_code":"USA","latitude":37.797435,"longitude":-122.403175,"location":{"type":"Point","coordinates":[-122.403175,37.797435]}},{"name":"Kontagent","category_code":"analytics","description":"Corporate Headquarters","address1":"201 Mission Street","address2":"25th Floor","zip_code":"94105","city":"San Francisco","state_code":"CA","country_code":"USA","latitude":37.7797255,"longitude":-122.4020593,"location":{"type":"Point","coordinates":[-122.4020593,37.7797255]}},{"name":"Eye-Fi","category_code":"hardware","description":"Headquarters","address1":"967 North Shoreline Blvd","address2":"","zip_code":"94043","city":"Mountain View","state_code":"CA","country_code":"USA","latitude":37.392428,"longitude":-122.072479,"location":{"type":"Point","coordinates":[-122.072479,37.392428]}},{"name":"Huddler","category_code":"web","description":"HQ","address1":"525 Market St.","address2":"Suite 200","zip_code":"94105","city":"San Francisco","state_code":"CA","country_code":"USA","latitude":37.7893215,"longitude":-122.4013624,"location":{"type":"Point","coordinates":[-122.4013624,37.7893215]}},{"name":"Admeld","category_code":"advertising","description":"Admeld NYC (HQ)","address1":"One Madison Ave","address2":"4th Floor","zip_code":"10010","city":"New York","state_code":"NY","country_code":"USA","latitude":40.755253,"longitude":-73.992152,"location":{"type":"Point","coordinates":[-73.992152,40.755253]}},{"name":"Anvato","category_code":"games_video","description":"Corporate Headquarters","address1":"465 N. Whisman Road","address2":"Suite 600","zip_code":"94043","city":"Mountain View","state_code":"CA","country_code":"USA","latitude":37.400689,"longitude":-122.0572,"location":{"type":"Point","coordinates":[-122.0572,37.400689]}},{"name":"Zorap","category_code":"web","description":"","address1":"","address2":"","zip_code":"","city":"San Francisco","state_code":"CA","country_code":"USA","latitude":37.775196,"longitude":-122.419204,"location":{"type":"Point","coordinates":[-122.419204,37.775196]}},{"name":"Hunch","category_code":"web","description":"","address1":"54 West 21st. Street...","address2":"","zip_code":"10010","city":"New York","state_code":"NY","country_code":"USA","latitude":40.741179,"longitude":-73.993182,"location":{"type":"Point","coordinates":[-73.993182,40.741179]}},{"name":"ngmoco","category_code":"games_video","description":"Secret Factory","address1":"185 Berry Street","address2":"Suite 3000","zip_code":"94107","city":"San Francisco","state_code":"CA","country_code":"USA","latitude":37.7705096,"longitude":-122.4015807,"location":{"type":"Point","coordinates":[-122.4015807,37.7705096]}},{"name":"AppNexus","category_code":"advertising","description":"Headquarters","address1":"28 W. 23rd Street","address2":"Fifth Floor","zip_code":"10010","city":"New York","state_code":"NY","country_code":"USA","latitude":40.7250495,"longitude":-73.9970912,"location":{"type":"Point","coordinates":[-73.9970912,40.7250495]}},{"name":"Sharethrough","category_code":"advertising","description":"","address1":"394 Pacific Ave.","address2":"Fl. 5","zip_code":"94111","city":"San Francisco","state_code":"CA","country_code":"USA","latitude":37.7976785,"longitude":-122.4018163,"location":{"type":"Point","coordinates":[-122.4018163,37.7976785]}},{"name":"ReTel Technologies","category_code":"analytics","description":"Main Office","address1":"","address2":"","zip_code":"94105","city":"San Francisco","state_code":"CA","country_code":"USA","latitude":41.78942,"longitude":-87.596232,"location":{"type":"Point","coordinates":[-87.596232,41.78942]}},{"name":"ShopWiki","category_code":"ecommerce","description":"","address1":"17 W 18th St","address2":"8th Floor","zip_code":"10011","city":"New York","state_code":"NY","country_code":"USA","latitude":40.740441,"longitude":-73.993376,"location":{"type":"Point","coordinates":[-73.993376,40.740441]}},{"name":"Lyft","category_code":"software","description":"Lyft HQ","address1":"","address2":"","zip_code":"94104","city":"San Francisco","state_code":"CA","country_code":"USA","latitude":37.7899027,"longitude":-122.4007846,"location":{"type":"Point","coordinates":[-122.4007846,37.7899027]}},{"name":"Demandbase","category_code":"analytics","description":"HQ","address1":"301 Howard Street","address2":"Suite 1800","zip_code":"94105","city":"San Francisco","state_code":"CA","country_code":"USA","latitude":37.796843,"longitude":-122.400346,"location":{"type":"Point","coordinates":[-122.400346,37.796843]}},{"name":"AdRocket","category_code":"advertising","description":"AdRocket Headquarters","address1":"","address2":"","zip_code":"","city":"San Francisco","state_code":"CA","country_code":"USA","latitude":37.775196,"longitude":-122.419204,"location":{"type":"Point","coordinates":[-122.419204,37.775196]}},{"name":"GoodGuide","category_code":"web","description":"","address1":"","address2":"","zip_code":"94111","city":"San Francisco","state_code":"CA","country_code":"USA","latitude":37.7983181,"longitude":-122.4000032,"location":{"type":"Point","coordinates":[-122.4000032,37.7983181]}},{"name":"PostPath","category_code":"web","description":"HQ","address1":"444 Castro St.","address2":"Suite 200","zip_code":"94041","city":"Mountain View","state_code":"CA","country_code":"USA","latitude":37.390501,"longitude":-122.081151,"location":{"type":"Point","coordinates":[-122.081151,37.390501]}},{"name":"Lolapps","category_code":"web","description":"","address1":"116 New Montgomery","address2":"","zip_code":"94105","city":"San Francisco","state_code":"CA","country_code":"USA","latitude":37.7870923,"longitude":-122.3999719,"location":{"type":"Point","coordinates":[-122.3999719,37.7870923]}},{"name":"Connectbeam","category_code":"software","description":"HQ","address1":"605 Ellis Street,","address2":"Suite 100","zip_code":"94043","city":"Mountain View","state_code":"CA","country_code":"USA","latitude":37.401818,"longitude":-122.050565,"location":{"type":"Point","coordinates":[-122.050565,37.401818]}},{"name":"Helpstream","category_code":"web","description":"","address1":"2001 Landings Drive","address2":"","zip_code":"94043","city":"Mountain View","state_code":"CA","country_code":"USA","latitude":37.418262,"longitude":-122.087859,"location":{"type":"Point","coordinates":[-122.087859,37.418262]}},{"name":"Pixelpipe","category_code":"mobile","description":"World Headquarters","address1":"321 7th St","address2":"","zip_code":"94103","city":"San Francisco","state_code":"CA","country_code":"USA","latitude":37.764395,"longitude":-122.401024,"location":{"type":"Point","coordinates":[-122.401024,37.764395]}},{"name":"InnerRewards","category_code":"ecommerce","description":"West Coast","address1":"731 Market Street","address2":"Floor 6","zip_code":"94103","city":"San Francisco","state_code":"CA","country_code":"USA","latitude":37.78691,"longitude":-122.404403,"location":{"type":"Point","coordinates":[-122.404403,37.78691]}},{"name":"InnerRewards","category_code":"ecommerce","description":"East Coast","address1":"16 West 23rd","address2":"Floor 4","zip_code":"10010","city":"New York","state_code":"NY","country_code":"USA","latitude":40.741594,"longitude":-73.990468,"location":{"type":"Point","coordinates":[-73.990468,40.741594]}},{"name":"ReTel Technologies","category_code":"analytics","description":"Main Office","address1":"","address2":"","zip_code":"94105","city":"San Francisco","state_code":"CA","country_code":"USA","latitude":41.78942,"longitude":-87.596232,"location":{"type":"Point","coordinates":[-87.596232,41.78942]}},{"name":"ShopWiki","category_code":"ecommerce","description":"","address1":"17 W 18th St","address2":"8th Floor","zip_code":"10011","city":"New York","state_code":"NY","country_code":"USA","latitude":40.740441,"longitude":-73.993376,"location":{"type":"Point","coordinates":[-73.993376,40.740441]}},{"name":"Lyft","category_code":"software","description":"Lyft HQ","address1":"","address2":"","zip_code":"94104","city":"San Francisco","state_code":"CA","country_code":"USA","latitude":37.7899027,"longitude":-122.4007846,"location":{"type":"Point","coordinates":[-122.4007846,37.7899027]}},{"name":"Demandbase","category_code":"analytics","description":"HQ","address1":"301 Howard Street","address2":"Suite 1800","zip_code":"94105","city":"San Francisco","state_code":"CA","country_code":"USA","latitude":37.796843,"longitude":-122.400346,"location":{"type":"Point","coordinates":[-122.400346,37.796843]}},{"name":"AdRocket","category_code":"advertising","description":"AdRocket Headquarters","address1":"","address2":"","zip_code":"","city":"San Francisco","state_code":"CA","country_code":"USA","latitude":37.775196,"longitude":-122.419204,"location":{"type":"Point","coordinates":[-122.419204,37.775196]}},{"name":"GoodGuide","category_code":"web","description":"","address1":"","address2":"","zip_code":"94111","city":"San Francisco","state_code":"CA","country_code":"USA","latitude":37.7983181,"longitude":-122.4000032,"location":{"type":"Point","coordinates":[-122.4000032,37.7983181]}},{"name":"PostPath","category_code":"web","description":"HQ","address1":"444 Castro St.","address2":"Suite 200","zip_code":"94041","city":"Mountain View","state_code":"CA","country_code":"USA","latitude":37.390501,"longitude":-122.081151,"location":{"type":"Point","coordinates":[-122.081151,37.390501]}},{"name":"Lolapps","category_code":"web","description":"","address1":"116 New Montgomery","address2":"","zip_code":"94105","city":"San Francisco","state_code":"CA","country_code":"USA","latitude":37.7870923,"longitude":-122.3999719,"location":{"type":"Point","coordinates":[-122.3999719,37.7870923]}},{"name":"Connectbeam","category_code":"software","description":"HQ","address1":"605 Ellis Street,","address2":"Suite 100","zip_code":"94043","city":"Mountain View","state_code":"CA","country_code":"USA","latitude":37.401818,"longitude":-122.050565,"location":{"type":"Point","coordinates":[-122.050565,37.401818]}},{"name":"Helpstream","category_code":"web","description":"","address1":"2001 Landings Drive","address2":"","zip_code":"94043","city":"Mountain View","state_code":"CA","country_code":"USA","latitude":37.418262,"longitude":-122.087859,"location":{"type":"Point","coordinates":[-122.087859,37.418262]}},{"name":"Pixelpipe","category_code":"mobile","description":"World Headquarters","address1":"321 7th St","address2":"","zip_code":"94103","city":"San Francisco","state_code":"CA","country_code":"USA","latitude":37.764395,"longitude":-122.401024,"location":{"type":"Point","coordinates":[-122.401024,37.764395]}},{"name":"InnerRewards","category_code":"ecommerce","description":"West Coast","address1":"731 Market Street","address2":"Floor 6","zip_code":"94103","city":"San Francisco","state_code":"CA","country_code":"USA","latitude":37.78691,"longitude":-122.404403,"location":{"type":"Point","coordinates":[-122.404403,37.78691]}},{"name":"InnerRewards","category_code":"ecommerce","description":"East Coast","address1":"16 West 23rd","address2":"Floor 4","zip_code":"10010","city":"New York","state_code":"NY","country_code":"USA","latitude":40.741594,"longitude":-73.990468,"location":{"type":"Point","coordinates":[-73.990468,40.741594]}},{"name":"Buzzd","category_code":"mobile","description":"buzzd HQ","address1":"833 Broadway","address2":"","zip_code":"10003","city":"New York","state_code":"NY","country_code":"USA","latitude":40.733928,"longitude":-73.991334,"location":{"type":"Point","coordinates":[-73.991334,40.733928]}},{"name":"Brightstorm","category_code":"games_video","description":"Headquarters","address1":"685 Market St. Street, Suite 270","address2":"","zip_code":"94105","city":"San Francisco","state_code":"CA","country_code":"USA","latitude":37.804619,"longitude":-122.371203,"location":{"type":"Point","coordinates":[-122.371203,37.804619]}},{"name":"PicApp","category_code":"web","description":"","address1":"505 Montgomery st","address2":"","zip_code":"94111","city":"San Francisco","state_code":"CA","country_code":"USA","latitude":37.79402,"longitude":-122.4031242,"location":{"type":"Point","coordinates":[-122.4031242,37.79402]}},{"name":"Bloglovin","category_code":"web","description":"Bloglovin' US","address1":"416 W 13th St","address2":"Suite 203","zip_code":"10014","city":"New York","state_code":"NY","country_code":"USA","latitude":40.740308,"longitude":-74.007199,"location":{"type":"Point","coordinates":[-74.007199,40.740308]}},{"name":"One Season","category_code":"games_video","description":"","address1":"","address2":"","zip_code":"","city":"San Francisco","state_code":"CA","country_code":"USA","latitude":37.775196,"longitude":-122.419204,"location":{"type":"Point","coordinates":[-122.419204,37.775196]}},{"name":"Reframe It","category_code":"web","description":"HQ","address1":"795 Folsom Street","address2":"","zip_code":"94103","city":"San Francisco","state_code":"CA","country_code":"USA","latitude":37.782163,"longitude":-122.400591,"location":{"type":"Point","coordinates":[-122.400591,37.782163]}},{"name":"Vinfolio","category_code":"ecommerce","description":"","address1":"1890 Bryant Street,","address2":"Suite 208","zip_code":"94110","city":"San Francisco","state_code":"CA","country_code":"USA","latitude":37.763293,"longitude":-122.410752,"location":{"type":"Point","coordinates":[-122.410752,37.763293]}},{"name":"Booyah","category_code":"games_video","description":"Booyah Inc.","address1":"139 Townsend Street, 3rd Floor","address2":"","zip_code":"94107","city":"San Francisco","state_code":"CA","country_code":"USA","latitude":37.420728,"longitude":-122.2103414,"location":{"type":"Point","coordinates":[-122.2103414,37.420728]}},{"name":"Formspring","category_code":"web","description":"Formspring","address1":"","address2":"","zip_code":"94105","city":"San Francisco","state_code":"CA","country_code":"USA","latitude":39.9052263,"longitude":-86.0547016,"location":{"type":"Point","coordinates":[-86.0547016,39.9052263]}},{"name":"For Your Imagination","category_code":"games_video","description":"HQ","address1":"22 West 27th Street","address2":"6th Floor","zip_code":"10001","city":"New York","state_code":"NY","country_code":"USA","latitude":40.744594,"longitude":-73.989698,"location":{"type":"Point","coordinates":[-73.989698,40.744594]}},{"name":"ReverbNation","category_code":"software","description":"ReverbNation NYC","address1":"555 8th Ave","address2":"Suite 909","zip_code":"10008","city":"New York","state_code":"NY","country_code":"USA","latitude":40.718888,"longitude":-74.001169,"location":{"type":"Point","coordinates":[-74.001169,40.718888]}},{"name":"DocVerse","category_code":"web","description":"","address1":"530 Howard St.","address2":"Suite 450","zip_code":"94105","city":"San Francisco","state_code":"CA","country_code":"USA","latitude":37.788115,"longitude":-122.397141,"location":{"type":"Point","coordinates":[-122.397141,37.788115]}},{"name":"Yipit","category_code":"web","description":"HQ","address1":"3 W 18th","address2":"2nd Floor","zip_code":"10011","city":"New York","state_code":"NY","country_code":"USA","latitude":40.744618,"longitude":-73.987764,"location":{"type":"Point","coordinates":[-73.987764,40.744618]}},{"name":"Verismo Networks","category_code":"games_video","description":"","address1":"1451 Grant Road #200","address2":"","zip_code":"94040","city":"Mountain View","state_code":"CA","country_code":"USA","latitude":37.3874345,"longitude":-122.051793,"location":{"type":"Point","coordinates":[-122.051793,37.3874345]}},{"name":"Eyeview","category_code":"advertising","description":"New York City","address1":"10 West 18th Street","address2":"6th Floor","zip_code":"10011","city":"New York","state_code":"NY","country_code":"USA","latitude":42.4898278,"longitude":-71.1993106,"location":{"type":"Point","coordinates":[-71.1993106,42.4898278]}},{"name":"MediaMath","category_code":"advertising","description":"Head Office","address1":"1440 Broadway","address2":"21st Floor","zip_code":"10018","city":"New York","state_code":"NY","country_code":"USA","latitude":40.756799,"longitude":-73.9763479,"location":{"type":"Point","coordinates":[-73.9763479,40.756799]}},{"name":"Synthesio","category_code":"software","description":"US Office","address1":"116 West 23rd St","address2":"","zip_code":"10011","city":"New York","state_code":"NY","country_code":"USA","latitude":40.7431836,"longitude":-73.9935011,"location":{"type":"Point","coordinates":[-73.9935011,40.7431836]}},{"name":"Fanminder","category_code":"advertising","description":"Headquarters","address1":"625 Second Street","address2":"Suite 280","zip_code":"94107","city":"San Francisco","state_code":"CA","country_code":"USA","latitude":37.3792486,"longitude":-122.1151274,"location":{"type":"Point","coordinates":[-122.1151274,37.3792486]}},{"name":"Verix","category_code":"software","description":"","address1":"1971 Landings Dr.","address2":"","zip_code":"94043","city":"Mountain View","state_code":"CA","country_code":"USA","latitude":37.4187022,"longitude":-122.0874129,"location":{"type":"Point","coordinates":[-122.0874129,37.4187022]}},{"name":"People Capital","category_code":"web","description":"Headquarters","address1":"","address2":"","zip_code":"","city":"New York","state_code":"NY","country_code":"USA","latitude":40.756054,"longitude":-73.986951,"location":{"type":"Point","coordinates":[-73.986951,40.756054]}},{"name":"Modelinia","category_code":"web","description":"","address1":"915 Broadway,","address2":"20th Floor","zip_code":"10010","city":"New York","state_code":"NY","country_code":"USA","latitude":40.739867,"longitude":-73.990024,"location":{"type":"Point","coordinates":[-73.990024,40.739867]}},{"name":"Coveroo","category_code":"hardware","description":"Headquarters","address1":"1000 Brannan Street","address2":"Suite 100","zip_code":"94103","city":"San Francisco","state_code":"CA","country_code":"USA","latitude":37.770067,"longitude":-122.407603,"location":{"type":"Point","coordinates":[-122.407603,37.770067]}},{"name":"Clikthrough","category_code":"software","description":"","address1":"414 Jackson St.","address2":"Suite 402","zip_code":"94111","city":"San Francisco","state_code":"CA","country_code":"USA","latitude":37.7965781,"longitude":-122.4022856,"location":{"type":"Point","coordinates":[-122.4022856,37.7965781]}},{"name":"BlueKai","category_code":"advertising","description":"New York Office","address1":"145 E 57th Street Floor 6","address2":"","zip_code":"10022","city":"New York","state_code":"NY","country_code":"USA","latitude":40.760955,"longitude":-73.968441,"location":{"type":"Point","coordinates":[-73.968441,40.760955]}},{"name":"Proclivity Systems","category_code":"software","description":"Headquarters","address1":"22 W 19th Street","address2":"9th floor","zip_code":"10011","city":"New York","state_code":"NY","country_code":"USA","latitude":40.738954,"longitude":-73.992,"location":{"type":"Point","coordinates":[-73.992,40.738954]}},{"name":"Hanger Network In-Home Media","category_code":"advertising","description":"","address1":"1841 Broadway","address2":"3rd Floor","zip_code":"10023","city":"New York","state_code":"NY","country_code":"USA","latitude":40.769375,"longitude":-73.982635,"location":{"type":"Point","coordinates":[-73.982635,40.769375]}},{"name":"SeeSaw Networks","category_code":"advertising","description":"","address1":"100 Bush St.","address2":"Suite #950","zip_code":"94104","city":"San Francisco","state_code":"CA","country_code":"USA","latitude":37.791564,"longitude":-122.399981,"location":{"type":"Point","coordinates":[-122.399981,37.791564]}},{"name":"BeliefNetworks","category_code":"software","description":"Biz Dev & Sales","address1":"162 Madison Ave.","address2":"","zip_code":"10016","city":"New York","state_code":"NY","country_code":"USA","latitude":40.746944,"longitude":-73.983926,"location":{"type":"Point","coordinates":[-73.983926,40.746944]}},{"name":"Robotgalaxy","category_code":"games_video","description":"","address1":"41 Union Square West,","address2":"Suite 808","zip_code":"10003","city":"New York","state_code":"NY","country_code":"USA","latitude":40.737216,"longitude":-73.990947,"location":{"type":"Point","coordinates":[-73.990947,40.737216]}},{"name":"Jasper Wireless","category_code":"mobile","description":"Headquarters:","address1":"Jasper Wireless, Inc","address2":"189 North Bernardo Avenue, Suite 150","zip_code":"94043","city":"Mountain View","state_code":"CA","country_code":"USA","latitude":37.394392,"longitude":-122.04221,"location":{"type":"Point","coordinates":[-122.04221,37.394392]}},{"name":"Dragonfly","category_code":"web","description":"","address1":"","address2":"","zip_code":"","city":"New York","state_code":"NY","country_code":"USA","latitude":40.756054,"longitude":-73.986951,"location":{"type":"Point","coordinates":[-73.986951,40.756054]}},{"name":"Fuego Nation","category_code":"web","description":"","address1":"","address2":"","zip_code":"","city":"San Francisco","state_code":"CA","country_code":"USA","latitude":37.775196,"longitude":-122.419204,"location":{"type":"Point","coordinates":[-122.419204,37.775196]}},{"name":"RingCube Technologies","category_code":"software","description":"HQ","address1":"100 W Evelyn Ave.","address2":"Suite 210","zip_code":"94041","city":"Mountain View","state_code":"CA","country_code":"USA","latitude":37.3915589,"longitude":-122.0702643,"location":{"type":"Point","coordinates":[-122.0702643,37.3915589]}},{"name":"Sensory Networks","category_code":"web","description":"Corporate Headquarters","address1":"2680 Bayshore Parkway","address2":"Suite 212","zip_code":"94043","city":"Mountain View","state_code":"CA","country_code":"USA","latitude":37.430025,"longitude":-122.09998,"location":{"type":"Point","coordinates":[-122.09998,37.430025]}},{"name":"Double Fusion","category_code":"web","description":"HQ","address1":"300 Beale Street,","address2":"Suite D","zip_code":"94105","city":"San Francisco","state_code":"CA","country_code":"USA","latitude":37.7887135,"longitude":-122.3927145,"location":{"type":"Point","coordinates":[-122.3927145,37.7887135]}},{"name":"5th Finger","category_code":"mobile","description":"Headquarters","address1":"222 Sutter St Suite 450","address2":"","zip_code":"94108","city":"San Francisco","state_code":"CA","country_code":"USA","latitude":37.7900992,"longitude":-122.4021988,"location":{"type":"Point","coordinates":[-122.4021988,37.7900992]}},{"name":"Mantara","category_code":"software","description":"Headquarters","address1":"215 Park Avenue South","address2":"20th Floor","zip_code":"10003","city":"New York","state_code":"NY","country_code":"USA","latitude":40.726517,"longitude":-74.032177,"location":{"type":"Point","coordinates":[-74.032177,40.726517]}},{"name":"SmartTurn","category_code":"advertising","description":"Company Headquarters","address1":"177 Fremont St.","address2":"","zip_code":"94105","city":"San Francisco","state_code":"CA","country_code":"USA","latitude":37.789801,"longitude":-122.395327,"location":{"type":"Point","coordinates":[-122.395327,37.789801]}},{"name":"Adaptive Planning","category_code":"software","description":"Headquarters","address1":"2041 Landings Drive","address2":"Building N","zip_code":"94043","city":"Mountain View","state_code":"CA","country_code":"USA","latitude":37.4192309,"longitude":-122.0887097,"location":{"type":"Point","coordinates":[-122.0887097,37.4192309]}},{"name":"Pictela","category_code":"advertising","description":"Pictela New York","address1":"770 Broadway","address2":"","zip_code":"10003","city":"New York","state_code":"NY","country_code":"USA","latitude":40.756054,"longitude":-73.986951,"location":{"type":"Point","coordinates":[-73.986951,40.756054]}},{"name":"Heyzap","category_code":"games_video","description":"Head Quaters","address1":"3rd Floor, 251 Kearny Street","address2":"Kearny Street","zip_code":"94108","city":"San Francisco","state_code":"CA","country_code":"USA","latitude":37.7905538,"longitude":-122.4041485,"location":{"type":"Point","coordinates":[-122.4041485,37.7905538]}},{"name":"Meez","category_code":"hardware","description":"","address1":"620 Folsom St, Suite 350","address2":"","zip_code":"94107","city":"San Francisco","state_code":"CA","country_code":"USA","latitude":37.785271,"longitude":-122.397582,"location":{"type":"Point","coordinates":[-122.397582,37.785271]}},{"name":"PEX Card","category_code":"software","description":"Headquarters","address1":"1375 Broadway","address2":"11th floor","zip_code":"10018","city":"New York","state_code":"NY","country_code":"USA","latitude":40.752539,"longitude":-73.987871,"location":{"type":"Point","coordinates":[-73.987871,40.752539]}},{"name":"Comixology","category_code":"games_video","description":"Main Office","address1":"159 West 25th Street 9th floor","address2":"","zip_code":"10010-4436","city":"New York","state_code":"NY","country_code":"USA","latitude":40.740512,"longitude":-73.987794,"location":{"type":"Point","coordinates":[-73.987794,40.740512]}},{"name":"Apprion","category_code":"mobile","description":"","address1":"1340 Space Park Way","address2":"","zip_code":"94043","city":"Mountain View","state_code":"CA","country_code":"USA","latitude":37.417485,"longitude":-122.075789,"location":{"type":"Point","coordinates":[-122.075789,37.417485]}},{"name":"TRAFFIQ","category_code":"advertising","description":"Headquarters","address1":"462 7th Avenue","address2":"21st Floor","zip_code":"10018","city":"New York","state_code":"NY","country_code":"USA","latitude":40.7429533,"longitude":-73.9844611,"location":{"type":"Point","coordinates":[-73.9844611,40.7429533]}},{"name":"Carrier IQ","category_code":"mobile","description":"","address1":"1200 Villa Street","address2":"","zip_code":"94041","city":"Mountain View","state_code":"CA","country_code":"USA","latitude":37.3955775,"longitude":-122.0833286,"location":{"type":"Point","coordinates":[-122.0833286,37.3955775]}},{"name":"KODA","category_code":"web","description":"San Francisco","address1":"220 Montgomery Street","address2":"#991","zip_code":"94104","city":"San Francisco","state_code":"CA","country_code":"USA","latitude":37.788796,"longitude":-122.40971,"location":{"type":"Point","coordinates":[-122.40971,37.788796]}},{"name":"Socialize","category_code":"mobile","description":"Headquarters","address1":"153 Townsend St","address2":"Suite 9057","zip_code":"94107","city":"San Francisco","state_code":"CA","country_code":"USA","latitude":38.88521,"longitude":-76.998641,"location":{"type":"Point","coordinates":[-76.998641,38.88521]}},{"name":"The Talk Market","category_code":"ecommerce","description":"","address1":"One Gateway Center, Suite 770","address2":"","zip_code":"07102","city":"New York","state_code":"NY","country_code":"USA","latitude":40.756054,"longitude":-73.986951,"location":{"type":"Point","coordinates":[-73.986951,40.756054]}},{"name":"Fortumo","category_code":"mobile","description":"USA","address1":"625 2nd Street","address2":"","zip_code":"94107","city":"San Francisco","state_code":"CA","country_code":"USA","latitude":59.42145,"longitude":24.8021233,"location":{"type":"Point","coordinates":[24.8021233,59.42145]}},{"name":"Eightfold Logic","category_code":"advertising","description":"","address1":"649 Mission Street","address2":"5th Floor","zip_code":"94105","city":"San Francisco","state_code":"CA","country_code":"USA","latitude":37.7870841,"longitude":-122.4010675,"location":{"type":"Point","coordinates":[-122.4010675,37.7870841]}},{"name":"Portero","category_code":"ecommerce","description":"Manhattan","address1":"275 Madison Ave # 1201","address2":"","zip_code":"10016","city":"New York","state_code":"NY","country_code":"USA","latitude":40.74727,"longitude":-73.9800645,"location":{"type":"Point","coordinates":[-73.9800645,40.74727]}},{"name":"YOUnite","category_code":"web","description":"","address1":"650 Castro Street","address2":"#120-377","zip_code":"94041","city":"Mountain View","state_code":"CA","country_code":"USA","latitude":37.388077,"longitude":-122.08316,"location":{"type":"Point","coordinates":[-122.08316,37.388077]}},{"name":"Luminate","category_code":"advertising","description":"","address1":"100 View Street","address2":"Suite 200","zip_code":"94043","city":"Mountain View","state_code":"CA","country_code":"USA","latitude":37.3998333,"longitude":-122.0465447,"location":{"type":"Point","coordinates":[-122.0465447,37.3998333]}},{"name":"PaperG","category_code":"advertising","description":"Headquarters","address1":"530 Bush Street","address2":"9th Floor","zip_code":"94108","city":"San Francisco","state_code":"CA","country_code":"USA","latitude":37.7905948,"longitude":-122.406111,"location":{"type":"Point","coordinates":[-122.406111,37.7905948]}},{"name":"Crispy Gamer","category_code":"games_video","description":"","address1":"35 West 36th Street","address2":"Suite 4W","zip_code":"10018","city":"New York","state_code":"NY","country_code":"USA","latitude":40.750597,"longitude":-73.985273,"location":{"type":"Point","coordinates":[-73.985273,40.750597]}},{"name":"MyLikes","category_code":"advertising","description":"","address1":"1000 Brannan St, #502","address2":"","zip_code":"94103","city":"San Francisco","state_code":"CA","country_code":"USA","latitude":37.777995,"longitude":-122.408914,"location":{"type":"Point","coordinates":[-122.408914,37.777995]}},{"name":"Unity Technologies","category_code":"games_video","description":"US Office","address1":"795 Folsom","address2":"","zip_code":"94107","city":"San Francisco","state_code":"CA","country_code":"USA","latitude":55.6924605,"longitude":12.530107,"location":{"type":"Point","coordinates":[12.530107,55.6924605]}},{"name":"Cognitive Match","category_code":"advertising","description":"New York (HQ)","address1":"475 Park Ave S","address2":"","zip_code":"10016","city":"New York","state_code":"NY","country_code":"USA","latitude":40.7454098,"longitude":-73.9822211,"location":{"type":"Point","coordinates":[-73.9822211,40.7454098]}},{"name":"Simulmedia","category_code":"advertising","description":"","address1":"670 Broadway","address2":"Second Floor","zip_code":"10012","city":"New York","state_code":"NY","country_code":"USA","latitude":40.727216,"longitude":-73.994797,"location":{"type":"Point","coordinates":[-73.994797,40.727216]}},{"name":"Gridstore","category_code":"network_hosting","description":"Gridstore","address1":"1975 Lndings Drive","address2":"","zip_code":"94043","city":"Mountain View","state_code":"CA","country_code":"USA","latitude":37.4189073,"longitude":-122.0884286,"location":{"type":"Point","coordinates":[-122.0884286,37.4189073]}},{"name":"iPharro Media","category_code":"software","description":"US Office","address1":"1133 Broadway","address2":"Suite 706","zip_code":"10010","city":"New York","state_code":"NY","country_code":"USA","latitude":40.7438356,"longitude":-73.9890149,"location":{"type":"Point","coordinates":[-73.9890149,40.7438356]}},{"name":"33Across","category_code":"advertising","description":"","address1":"229 W 28th St.","address2":"12th Fl.","zip_code":"10001","city":"New York","state_code":"NY","country_code":"USA","latitude":40.75406,"longitude":-73.999003,"location":{"type":"Point","coordinates":[-73.999003,40.75406]}},{"name":"Magnetic","category_code":"advertising","description":"New York, NY - HQ","address1":"311 W 43rd St","address2":"Suite 1406","zip_code":"10036","city":"New York","state_code":"NY","country_code":"USA","latitude":40.758343,"longitude":-73.990152,"location":{"type":"Point","coordinates":[-73.990152,40.758343]}},{"name":"SpaBooker","category_code":"software","description":"SpaBooker Head Office","address1":"22 Cortlandt St Floor 18","address2":"","zip_code":"10007","city":"New York","state_code":"NY","country_code":"USA","latitude":40.738567,"longitude":-73.987199,"location":{"type":"Point","coordinates":[-73.987199,40.738567]}},{"name":"GameChanger Media","category_code":"software","description":"New York Office","address1":"86 Chambers St","address2":"2nd Floor","zip_code":"10007","city":"New York","state_code":"NY","country_code":"USA","latitude":40.7078343,"longitude":-74.0136605,"location":{"type":"Point","coordinates":[-74.0136605,40.7078343]}},{"name":"tracx","category_code":"analytics","description":"HQ","address1":"104 West 27th Street,","address2":"3rd Floor","zip_code":"10001","city":"New York","state_code":"NY","country_code":"USA","latitude":32.0554,"longitude":34.7595,"location":{"type":"Point","coordinates":[34.7595,32.0554]}},{"name":"Chartbeat","category_code":"analytics","description":"","address1":"826 Broadway","address2":"6th Floor","zip_code":"10003","city":"New York","state_code":"NY","country_code":"USA","latitude":40.73343,"longitude":-73.990967,"location":{"type":"Point","coordinates":[-73.990967,40.73343]}},{"name":"CoTweet","category_code":"advertising","description":"","address1":"Pier 38","address2":"","zip_code":"94107","city":"San Francisco","state_code":"CA","country_code":"USA","latitude":37.7405936,"longitude":-122.3764714,"location":{"type":"Point","coordinates":[-122.3764714,37.7405936]}},{"name":"Bomgar","category_code":"software","description":"San Francisco","address1":"425 Market Street","address2":"Suite 2210","zip_code":"94105","city":"San Francisco","state_code":"CA","country_code":"USA","latitude":37.791128,"longitude":-122.398126,"location":{"type":"Point","coordinates":[-122.398126,37.791128]}},{"name":"Gear6","category_code":"network_hosting","description":"Headquarters","address1":"526 Clyde Avenue","address2":"","zip_code":"94043","city":"Mountain View","state_code":"CA","country_code":"USA","latitude":37.389615,"longitude":-122.050179,"location":{"type":"Point","coordinates":[-122.050179,37.389615]}},{"name":"Fotomoto","category_code":"ecommerce","description":"Main Office","address1":"425 Brannan St.","address2":"","zip_code":"94107","city":"San Francisco","state_code":"CA","country_code":"USA","latitude":37.7795014,"longitude":-122.3948712,"location":{"type":"Point","coordinates":[-122.3948712,37.7795014]}},{"name":"Firm58","category_code":"software","description":"New York Office (Sales)","address1":"","address2":"","zip_code":"","city":"New York","state_code":"NY","country_code":"USA","latitude":40.766734,"longitude":-73.988265,"location":{"type":"Point","coordinates":[-73.988265,40.766734]}},{"name":"DoubleVerify","category_code":"advertising","description":"DoubleVerify, NY","address1":"575 8th Avenue","address2":"8th floor","zip_code":"10018","city":"New York","state_code":"NY","country_code":"USA","latitude":40.6454932,"longitude":-73.9451011,"location":{"type":"Point","coordinates":[-73.9451011,40.6454932]}},{"name":"Marketcetera","category_code":"software","description":"San Francisco","address1":"28 2nd Street","address2":"3rd Floor","zip_code":"94105","city":"San Francisco","state_code":"CA","country_code":"USA","latitude":37.788864,"longitude":-122.4008487,"location":{"type":"Point","coordinates":[-122.4008487,37.788864]}},{"name":"Garlik","category_code":"software","description":"Garlik US Office","address1":"445 Park Avenue","address2":"","zip_code":"10022","city":"New York","state_code":"NY","country_code":"USA","latitude":40.7615818,"longitude":-73.970624,"location":{"type":"Point","coordinates":[-73.970624,40.7615818]}},{"name":"RainStor","category_code":"analytics","description":"US office","address1":"45 Belden Place, 2nd Floor","address2":"","zip_code":"94104","city":"San Francisco","state_code":"CA","country_code":"USA","latitude":51.865488,"longitude":-2.235187,"location":{"type":"Point","coordinates":[-2.235187,51.865488]}},{"name":"Saavn","category_code":"games_video","description":"Corporate Headquarters","address1":"","address2":"","zip_code":"10016","city":"New York","state_code":"NY","country_code":"USA","latitude":40.743877,"longitude":-73.98618,"location":{"type":"Point","coordinates":[-73.98618,40.743877]}},{"name":"PlantSense","category_code":"web","description":"Corporate Headquarters","address1":"205 13th Street Suite 2001","address2":"","zip_code":"94103","city":"San Francisco","state_code":"CA","country_code":"USA","latitude":37.7697623,"longitude":-122.4183929,"location":{"type":"Point","coordinates":[-122.4183929,37.7697623]}},{"name":"Topsy Labs","category_code":"analytics","description":"Headquarters","address1":"140 Second St","address2":"6th Floor","zip_code":"94105","city":"San Francisco","state_code":"CA","country_code":"USA","latitude":37.775196,"longitude":-122.419204,"location":{"type":"Point","coordinates":[-122.419204,37.775196]}},{"name":"GameGround","category_code":"games_video","description":"HQ","address1":"","address2":"","zip_code":"","city":"New York","state_code":"NY","country_code":"USA","latitude":40.756054,"longitude":-73.986951,"location":{"type":"Point","coordinates":[-73.986951,40.756054]}},{"name":"TVU Networks","category_code":"ecommerce","description":"Headquarters","address1":"1685 Plymouth St.","address2":"Suite 100","zip_code":"94043","city":"Mountain View","state_code":"CA","country_code":"USA","latitude":37.416349,"longitude":-122.085021,"location":{"type":"Point","coordinates":[-122.085021,37.416349]}},{"name":"Siluria Technologies","category_code":"nanotech","description":"","address1":"409 Illinois Street","address2":"","zip_code":"94158","city":"San Francisco","state_code":"CA","country_code":"USA","latitude":37.4484914,"longitude":-122.1802812,"location":{"type":"Point","coordinates":[-122.1802812,37.4484914]}},{"name":"OpTier","category_code":"analytics","description":"Corporate Headquarters","address1":"350 Fifth Avenue","address2":"Suite 6540","zip_code":"10118","city":"New York","state_code":"NY","country_code":"USA","latitude":40.754937,"longitude":-73.985647,"location":{"type":"Point","coordinates":[-73.985647,40.754937]}},{"name":"ChallengePost","category_code":"web","description":"","address1":"425 West 13th Street","address2":"Suite 504","zip_code":"10014","city":"New York","state_code":"NY","country_code":"USA","latitude":40.7408042,"longitude":-74.00717,"location":{"type":"Point","coordinates":[-74.00717,40.7408042]}}]