[{"name":"StumbleUpon","category_code":"web","description":"","address1":"","address2":"","zip_code":"","city":"San Francisco","state_code":"CA","country_code":"USA","latitude":37.775196,"longitude":-122.419204,"location":{"type":"Point","coordinates":[-122.419204,37.775196]}},{"name":"Viacom","category_code":"web","description":"HQ","address1":"1515 Broadway","address2":"","zip_code":"10036","city":"New York","state_code":"NY","country_code":"USA","latitude":40.757725,"longitude":-73.986011,"location":{"type":"Point","coordinates":[-73.986011,40.757725]}},{"name":"Technorati","category_code":"advertising","description":"","address1":"360 Post St. Ste. 1100","address2":"","zip_code":"94108","city":"San Francisco","state_code":"CA","country_code":"USA","latitude":37.779558,"longitude":-122.393041,"location":{"type":"Point","coordinates":[-122.393041,37.779558]}},{"name":"Meetup","category_code":"web","description":null,"address1":"632 Broadway","address2":"10th Floor","zip_code":"10012","city":"New York","state_code":"NY","country_code":"USA","latitude":40.72604,"longitude":-73.995722,"location":{"type":"Point","coordinates":[-73.995722,40.72604]}},{"name":"SmugMug","category_code":"photo_video","description":"","address1":"67 E. Evelyn Ave, Suite 200","address2":"","zip_code":"94041","city":"Mountain View","state_code":"CA","country_code":"USA","latitude":37.390056,"longitude":-122.067692,"location":{"type":"Point","coordinates":[-122.067692,37.390056]}},{"name":"BabyCenter","category_code":"web","description":"","address1":"163 Freelon Street","address2":"646-487-6380","zip_code":"94107","city":"San Francisco","state_code":"CA","country_code":"USA","latitude":37.778076,"longitude":-122.397977,"location":{"type":"Point","coordinates":[-122.397977,37.778076]}},{"name":"Google","category_code":"search","description":"Google Headquarters","address1":"1600 Amphitheatre Parkway","address2":"","zip_code":"","city":"Mountain View","state_code":"CA","country_code":"USA","latitude":37.421972,"longitude":-122.084143,"location":{"type":"Point","coordinates":[-122.084143,37.421972]}},{"name":"Google","category_code":"search","description":"Google New York","address1":"76 Ninth Avenue","address2":"4th Floor","zip_code":"10011","city":"New York","state_code":"NY","country_code":"USA","latitude":40.74222,"longitude":-74.004489,"location":{"type":"Point","coordinates":[-74.004489,40.74222]}},{"name":"Google","category_code":"search","description":"Google San Francisco","address1":"345 Spear Street","address2":"4th Floor","zip_code":"94105","city":"San Francisco","state_code":"CA","country_code":"USA","latitude":37.789803,"longitude":-122.389757,"location":{"type":"Point","coordinates":[-122.389757,37.789803]}},{"name":"Vast","category_code":"ecommerce","description":"Vast San Francisco","address1":"560 Sutter St.","address2":"Suite 300","zip_code":"94108","city":"San Francisco","state_code":"CA","country_code":"USA","latitude":37.787183,"longitude":-122.397759,"location":{"type":"Point","coordinates":[-122.397759,37.787183]}},{"name":"Piczo","category_code":"network_hosting","description":null,"address1":"150 California Street","address2":"Suite 1000","zip_code":"94111","city":"San Francisco","state_code":"CA","country_code":"USA","latitude":37.793703,"longitude":-122.398479,"location":{"type":"Point","coordinates":[-122.398479,37.793703]}},{"name":"Snapfish","category_code":"network_hosting","description":null,"address1":"303 Second Street","address2":"South Tower, Suite 500","zip_code":"94107","city":"San Francisco","state_code":"CA","country_code":"USA","latitude":37.78554,"longitude":-122.396689,"location":{"type":"Point","coordinates":[-122.396689,37.78554]}},{"name":"IAC","category_code":"news","description":"HQ","address1":"555 West 18th Street","address2":"","zip_code":"10011","city":"New York","state_code":"NY","country_code":"USA","latitude":40.745172,"longitude":-74.007646,"location":{"type":"Point","coordinates":[-74.007646,40.745172]}},{"name":"AOL","category_code":"web","description":"HQ","address1":"770 Broadway","address2":"","zip_code":"10003","city":"New York","state_code":"NY","country_code":"USA","latitude":40.7311317,"longitude":-73.9919311,"location":{"type":"Point","coordinates":[-73.9919311,40.7311317]}},{"name":"SelectMinds","category_code":"network_hosting","description":null,"address1":"149 Fifth Avenue","address2":null,"zip_code":"10010","city":"New York","state_code":"NY","country_code":"USA","latitude":40.740251,"longitude":-73.990004,"location":{"type":"Point","coordinates":[-73.990004,40.740251]}},{"name":"Guba","category_code":"web","description":"HQ","address1":"601 Van Ness Avenue","address2":"Suite E3-970","zip_code":"94102","city":"San Francisco","state_code":"CA","country_code":"USA","latitude":37.09024,"longitude":-95.712891,"location":{"type":"Point","coordinates":[-95.712891,37.09024]}},{"name":"Fathom Online","category_code":"advertising","description":null,"address1":"","address2":"","zip_code":"","city":"San Francisco","state_code":"CA","country_code":"USA","latitude":37.775196,"longitude":-122.419204,"location":{"type":"Point","coordinates":[-122.419204,37.775196]}},{"name":"ContextWeb","category_code":"analytics","description":null,"address1":"22 Cortlandt Street","address2":"","zip_code":"10007","city":"New York","state_code":"NY","country_code":"USA","latitude":40.71014,"longitude":-74.010808,"location":{"type":"Point","coordinates":[-74.010808,40.71014]}},{"name":"BitPass","category_code":"web","description":null,"address1":"","address2":"","zip_code":"","city":"Mountain View","state_code":"CA","country_code":"USA","latitude":37.40047,"longitude":-122.072981,"location":{"type":"Point","coordinates":[-122.072981,37.40047]}},{"name":"Heavy","category_code":"web","description":null,"address1":"500 7th Avenue","address2":"17th Floor","zip_code":"10018","city":"New York","state_code":"NY","country_code":"USA","latitude":40.753385,"longitude":-73.98962,"location":{"type":"Point","coordinates":[-73.98962,40.753385]}},{"name":"Nielsen","category_code":"web","description":"","address1":"85 Broad Street","address2":"","zip_code":"10004","city":"New York","state_code":"NY","country_code":"USA","latitude":40.731118,"longitude":-73.991933,"location":{"type":"Point","coordinates":[-73.991933,40.731118]}},{"name":"Netblue","category_code":"web","description":"HQ","address1":"303 Bryant Street","address2":"3rd Floor","zip_code":"94041","city":"Mountain View","state_code":"CA","country_code":"USA","latitude":37.09024,"longitude":-95.712891,"location":{"type":"Point","coordinates":[-95.712891,37.09024]}},{"name":"OpenTable","category_code":"web","description":"","address1":"One Montgomery","address2":"","zip_code":"","city":"San Francisco","state_code":"CA","country_code":"USA","latitude":37.785647,"longitude":-122.405265,"location":{"type":"Point","coordinates":[-122.405265,37.785647]}},{"name":"MIVA","category_code":"advertising","description":"","address1":"41 East 11th Street","address2":"","zip_code":"10013","city":"New York","state_code":"NY","country_code":"USA","latitude":40.733276,"longitude":-73.9932793,"location":{"type":"Point","coordinates":[-73.9932793,40.733276]}},{"name":"Fotolog","category_code":"network_hosting","description":null,"address1":null,"address2":null,"zip_code":null,"city":"New York","state_code":"NY","country_code":"USA","latitude":40.757929,"longitude":-73.985506,"location":{"type":"Point","coordinates":[-73.985506,40.757929]}},{"name":"Tutor","category_code":"web","description":"Corporate Headquarters","address1":"40 Fulton St.","address2":"","zip_code":"10038","city":"New York","state_code":"NY","country_code":"USA","latitude":40.707921,"longitude":-74.004792,"location":{"type":"Point","coordinates":[-74.004792,40.707921]}},{"name":"Jawbone","category_code":"hardware","description":"","address1":"99 Rhode Island Street","address2":"3rd Floor","zip_code":"94103","city":"San Francisco","state_code":"CA","country_code":"USA","latitude":37.768708,"longitude":-122.402866,"location":{"type":"Point","coordinates":[-122.402866,37.768708]}},{"name":"Mozilla","category_code":"web","description":"","address1":"650 Castro Street","address2":"Suite 300","zip_code":"94041","city":"Mountain View","state_code":"CA","country_code":"USA","latitude":37.418491,"longitude":-122.08744,"location":{"type":"Point","coordinates":[-122.08744,37.418491]}},{"name":"Mimeo","category_code":"web","description":null,"address1":"460 Park Avenue South","address2":"","zip_code":"10016","city":"New York","state_code":"NY","country_code":"USA","latitude":40.745216,"longitude":-73.982807,"location":{"type":"Point","coordinates":[-73.982807,40.745216]}},{"name":"tyntec","category_code":"mobile","description":"San Francisco","address1":"425 Market Street","address2":"Suite 2200","zip_code":"94105","city":"San Francisco","state_code":"CA","country_code":"USA","latitude":37.7911209,"longitude":-122.398125,"location":{"type":"Point","coordinates":[-122.398125,37.7911209]}},{"name":"Quigo","category_code":"advertising","description":null,"address1":"90 Park Avenue, 10th Floor","address2":null,"zip_code":"10016","city":"New York","state_code":"NY","country_code":"USA","latitude":40.907974,"longitude":-73.84179,"location":{"type":"Point","coordinates":[-73.84179,40.907974]}},{"name":"TheStreet","category_code":"finance","description":"Corporate Headquarters","address1":"14 Wall Street","address2":"","zip_code":"","city":"New York","state_code":"NY","country_code":"USA","latitude":40.707645,"longitude":-74.010816,"location":{"type":"Point","coordinates":[-74.010816,40.707645]}},{"name":"beRecruited","category_code":"sports","description":"beRecruited Headquarters","address1":"539 Bryant St","address2":"","zip_code":"94117","city":"San Francisco","state_code":"CA","country_code":"USA","latitude":33.754487,"longitude":-84.389663,"location":{"type":"Point","coordinates":[-84.389663,33.754487]}},{"name":"LiveJournal","category_code":"software","description":"","address1":"580 Market Street","address2":"","zip_code":"94104","city":"San Francisco","state_code":"CA","country_code":"USA","latitude":37.7799872,"longitude":-122.3975878,"location":{"type":"Point","coordinates":[-122.3975878,37.7799872]}},{"name":"Deem","category_code":"ecommerce","description":"HQ","address1":"301 Howard Street","address2":"20th Floor","zip_code":"94105","city":"San Francisco","state_code":"CA","country_code":"USA","latitude":37.559836,"longitude":-122.271532,"location":{"type":"Point","coordinates":[-122.271532,37.559836]}},{"name":"Shozu","category_code":"mobile","description":null,"address1":"600 Townsend St., Suite 120E","address2":"","zip_code":"94103","city":"San Francisco","state_code":"CA","country_code":"USA","latitude":37.771706,"longitude":-122.402683,"location":{"type":"Point","coordinates":[-122.402683,37.771706]}},{"name":"Xanga","category_code":"web","description":null,"address1":"555 8th Ave.","address2":"21st Floor","zip_code":"10018","city":"New York","state_code":"NY","country_code":"USA","latitude":40.754698,"longitude":-73.992152,"location":{"type":"Point","coordinates":[-73.992152,40.754698]}},{"name":"Monster","category_code":"search","description":"HQ","address1":"622 Third Avenue","address2":"39th Floor","zip_code":"10017","city":"New York","state_code":"NY","country_code":"USA","latitude":42.42517,"longitude":-71.45677,"location":{"type":"Point","coordinates":[-71.45677,42.42517]}},{"name":"Craigslist","category_code":"web","description":null,"address1":"1381 9th Ave","address2":"","zip_code":"","city":"San Francisco","state_code":"CA","country_code":"USA","latitude":37.762512,"longitude":-122.46649,"location":{"type":"Point","coordinates":[-122.46649,37.762512]}},{"name":"Gawker Media","category_code":"games_video","description":"HQ","address1":"210 Elizabeth Street","address2":"Fourth Floor","zip_code":"10012","city":"New York","state_code":"NY","country_code":"USA","latitude":40.757929,"longitude":-73.985506,"location":{"type":"Point","coordinates":[-73.985506,40.757929]}},{"name":"Pyra Labs","category_code":null,"description":"","address1":"","address2":"","zip_code":"","city":"San Francisco","state_code":"CA","country_code":"USA","latitude":37.775196,"longitude":-122.419204,"location":{"type":"Point","coordinates":[-122.419204,37.775196]}},{"name":"ManageMyAdvertising","category_code":"web","description":null,"address1":"","address2":"","zip_code":"94111","city":"San Francisco","state_code":"CA","country_code":"USA","latitude":37.798853,"longitude":-122.398599,"location":{"type":"Point","coordinates":[-122.398599,37.798853]}},{"name":"DoubleClick","category_code":"advertising","description":"","address1":"76 Ninth Avenue","address2":"4th Floor","zip_code":"10011","city":"New York","state_code":"NY","country_code":"USA","latitude":40.741089,"longitude":-74.001526,"location":{"type":"Point","coordinates":[-74.001526,40.741089]}},{"name":"Oddcast","category_code":"web","description":null,"address1":"134 W. 37th Street","address2":"7th Floor","zip_code":"10018","city":"New York","state_code":"NY","country_code":"USA","latitude":40.752325,"longitude":-73.988477,"location":{"type":"Point","coordinates":[-73.988477,40.752325]}},{"name":"Pivotal Labs","category_code":"consulting","description":"Headquarters","address1":"875 Howard St","address2":"Fifth Floor","zip_code":"94103","city":"San Francisco","state_code":"CA","country_code":"USA","latitude":37.78691,"longitude":-122.404403,"location":{"type":"Point","coordinates":[-122.404403,37.78691]}},{"name":"Pivotal Labs","category_code":"consulting","description":"New York Office","address1":"841 Broadway","address2":"8th Floor","zip_code":"10003","city":"New York","state_code":"NY","country_code":"USA","latitude":40.7343617,"longitude":-73.9910647,"location":{"type":"Point","coordinates":[-73.9910647,40.7343617]}},{"name":"Three Rings","category_code":"web","description":null,"address1":"","address2":"","zip_code":"","city":"San Francisco","state_code":"CA","country_code":"USA","latitude":37.775196,"longitude":-122.419204,"location":{"type":"Point","coordinates":[-122.419204,37.775196]}},{"name":"Paramount Pictures","category_code":"games_video","description":"Viacom Headquarters","address1":"1515 Broadway","address2":"","zip_code":"10036","city":"New York","state_code":"NY","country_code":"USA","latitude":40.7577017,"longitude":-73.9858165,"location":{"type":"Point","coordinates":[-73.9858165,40.7577017]}},{"name":"Coverity","category_code":"enterprise","description":"HQ","address1":"185 Berry Street","address2":"Suite 6500","zip_code":"94107","city":"San Francisco","state_code":"CA","country_code":"USA","latitude":37.7759675,"longitude":-122.3931128,"location":{"type":"Point","coordinates":[-122.3931128,37.7759675]}},{"name":"Hotwire","category_code":"web","description":"","address1":"655 Montgomery Street","address2":"Ste. 600","zip_code":"94111","city":"San Francisco","state_code":"CA","country_code":"USA","latitude":37.795236,"longitude":-122.403607,"location":{"type":"Point","coordinates":[-122.403607,37.795236]}},{"name":"StubHub","category_code":"ecommerce","description":"","address1":"199 Fremont St","address2":"Fl 4","zip_code":"94105","city":"San Francisco","state_code":"CA","country_code":"USA","latitude":37.7892685,"longitude":-122.3951844,"location":{"type":"Point","coordinates":[-122.3951844,37.7892685]}},{"name":"Intuit","category_code":"software","description":"Headquarters","address1":"2632 Marine Way","address2":"","zip_code":"94043","city":"Mountain View","state_code":"CA","country_code":"USA","latitude":37.428373,"longitude":-122.097604,"location":{"type":"Point","coordinates":[-122.097604,37.428373]}},{"name":"Mochila","category_code":"advertising","description":"HQ","address1":"225 Broadway, Ste. 1805","address2":"","zip_code":"10007","city":"New York","state_code":"NY","country_code":"USA","latitude":40.711982,"longitude":-74.008622,"location":{"type":"Point","coordinates":[-74.008622,40.711982]}},{"name":"XO Group","category_code":"web","description":"","address1":"462 Broadway, Floor 6","address2":"","zip_code":"10013","city":"New York","state_code":"NY","country_code":"USA","latitude":40.720824,"longitude":-74.00007,"location":{"type":"Point","coordinates":[-74.00007,40.720824]}},{"name":"Vector Capital","category_code":null,"description":"","address1":"1 Market St","address2":"23rd Floor","zip_code":"94105-1420","city":"San Francisco","state_code":"CA","country_code":"USA","latitude":37.793473,"longitude":-122.402667,"location":{"type":"Point","coordinates":[-122.402667,37.793473]}},{"name":"The Media Kitchen","category_code":"other","description":"Corporate Headquarters","address1":"160 Varick Street","address2":"","zip_code":"10013","city":"New York","state_code":"NY","country_code":"USA","latitude":40.726637,"longitude":-74.005177,"location":{"type":"Point","coordinates":[-74.005177,40.726637]}},{"name":"Comverse Technology","category_code":"software","description":"HQ","address1":"810 7th Ave","address2":"","zip_code":"10019-5810","city":"New York","state_code":"NY","country_code":"USA","latitude":36.162612,"longitude":-106.53529,"location":{"type":"Point","coordinates":[-106.53529,36.162612]}},{"name":"Boonty","category_code":"games_video","description":null,"address1":"54 Franklin Street","address2":"3F","zip_code":"10013","city":"New York","state_code":"NY","country_code":"USA","latitude":40.717248,"longitude":-74.002662,"location":{"type":"Point","coordinates":[-74.002662,40.717248]}},{"name":"CheetahMail","category_code":"web","description":null,"address1":"29 Broadway, 6th floor","address2":"","zip_code":"10006","city":"New York","state_code":"NY","country_code":"USA","latitude":40.642913,"longitude":-73.885878,"location":{"type":"Point","coordinates":[-73.885878,40.642913]}},{"name":"Elance","category_code":"web","description":"Headquarters","address1":"441 Logue Avenue","address2":"","zip_code":"94043","city":"Mountain View","state_code":"CA","country_code":"USA","latitude":37.398022,"longitude":-122.049143,"location":{"type":"Point","coordinates":[-122.049143,37.398022]}},{"name":"CustomerSat","category_code":"advertising","description":null,"address1":"500 Ellis Street","address2":"","zip_code":"94043","city":"Mountain View","state_code":"CA","country_code":"USA","latitude":37.40158,"longitude":-122.052199,"location":{"type":"Point","coordinates":[-122.052199,37.40158]}},{"name":"The FeedRoom","category_code":"public_relations","description":"Corporate Headquarters","address1":"205 Hudson Street","address2":"8th Floor","zip_code":"10013","city":"New York","state_code":"NY","country_code":"USA","latitude":40.723614,"longitude":-74.007948,"location":{"type":"Point","coordinates":[-74.007948,40.723614]}},{"name":"Astoria Software","category_code":"software","description":"","address1":"300 Broadway Street","address2":"Suite 8","zip_code":"94133","city":"San Francisco","state_code":"CA","country_code":"USA","latitude":37.798684,"longitude":-122.40264,"location":{"type":"Point","coordinates":[-122.40264,37.798684]}},{"name":"Logitech","category_code":"hardware","description":"Streaming Media Systems","address1":"455 National Avenue","address2":"","zip_code":"94043","city":"Mountain View","state_code":"CA","country_code":"USA","latitude":37.401264,"longitude":-122.053049,"location":{"type":"Point","coordinates":[-122.053049,37.401264]}},{"name":"AirTight Networks","category_code":"security","description":"HQ","address1":"339 N. Bernardo Avenue","address2":"Suite 200","zip_code":"94043","city":"Mountain View","state_code":"CA","country_code":"USA","latitude":37.387226,"longitude":-122.049945,"location":{"type":"Point","coordinates":[-122.049945,37.387226]}},{"name":"Polaris Wireless","category_code":"mobile","description":"","address1":"301 North Whisman Road","address2":"","zip_code":"94043","city":"Mountain View","state_code":"CA","country_code":"USA","latitude":37.397528,"longitude":-122.05892,"location":{"type":"Point","coordinates":[-122.05892,37.397528]}},{"name":"NeoEdge Networks","category_code":"advertising","description":null,"address1":"215 Castro Street","address2":"2nd Floor","zip_code":"94041","city":"Mountain View","state_code":"CA","country_code":"USA","latitude":37.393679,"longitude":-122.079017,"location":{"type":"Point","coordinates":[-122.079017,37.393679]}},{"name":"MTV Networks","category_code":"advertising","description":"HQ","address1":"1515 Broadway","address2":"","zip_code":"10036","city":"New York","state_code":"NY","country_code":"USA","latitude":40.757725,"longitude":-73.986011,"location":{"type":"Point","coordinates":[-73.986011,40.757725]}},{"name":"Symantec","category_code":"security","description":"World Headquarters","address1":"350 Ellis St","address2":"","zip_code":"94043","city":"Mountain View","state_code":"CA","country_code":"USA","latitude":37.321529,"longitude":-122.028351,"location":{"type":"Point","coordinates":[-122.028351,37.321529]}},{"name":"LookSmart","category_code":"advertising","description":"San Francisco USA","address1":"55 Second Street","address2":"suite 700","zip_code":"94105","city":"San Francisco","state_code":"CA","country_code":"USA","latitude":37.781689,"longitude":-122.391061,"location":{"type":"Point","coordinates":[-122.391061,37.781689]}},{"name":"ContentNext Media","category_code":"web","description":"","address1":"49 West 27th Street","address2":"10th Fl. West","zip_code":"10023","city":"New York","state_code":"NY","country_code":"USA","latitude":34.016655,"longitude":-118.492358,"location":{"type":"Point","coordinates":[-118.492358,34.016655]}},{"name":"Bango","category_code":"mobile","description":"USA","address1":"20 West 22nd Street","address2":"Suite 906","zip_code":"10010","city":"New York","state_code":"NY","country_code":"USA","latitude":40.7412488,"longitude":-73.9912518,"location":{"type":"Point","coordinates":[-73.9912518,40.7412488]}},{"name":"Allopass","category_code":"web","description":"San Francisco","address1":"","address2":"","zip_code":"94114","city":"San Francisco","state_code":"CA","country_code":"USA","latitude":37.7561438,"longitude":-122.4325682,"location":{"type":"Point","coordinates":[-122.4325682,37.7561438]}},{"name":"Allopass","category_code":"web","description":"New York","address1":"101 5th Ave","address2":"9th Floor","zip_code":"10003","city":"New York","state_code":"NY","country_code":"USA","latitude":40.737989,"longitude":-73.991764,"location":{"type":"Point","coordinates":[-73.991764,40.737989]}},{"name":"ZEDO","category_code":"advertising","description":"","address1":"850 Montgomery Street","address2":"Suite 150","zip_code":"94133","city":"San Francisco","state_code":"CA","country_code":"USA","latitude":37.786464,"longitude":-122.397819,"location":{"type":"Point","coordinates":[-122.397819,37.786464]}},{"name":"WebMD","category_code":"web","description":"HQ","address1":"111 8th Ave","address2":"7th Floor","zip_code":"10011","city":"New York","state_code":"NY","country_code":"USA","latitude":40.7410886,"longitude":-74.0015261,"location":{"type":"Point","coordinates":[-74.0015261,40.7410886]}},{"name":"Undertone","category_code":"advertising","description":"NY - Headquarters","address1":"340 Madison","address2":"8th Floor","zip_code":"10178","city":"New York","state_code":"NY","country_code":"USA","latitude":40.7509033,"longitude":-73.9779759,"location":{"type":"Point","coordinates":[-73.9779759,40.7509033]}},{"name":"Undertone","category_code":"advertising","description":"San Francisco","address1":"101 California St.","address2":"Suite 850","zip_code":"94111","city":"San Francisco","state_code":"CA","country_code":"USA","latitude":37.792949,"longitude":-122.398099,"location":{"type":"Point","coordinates":[-122.398099,37.792949]}},{"name":"South Park Studios","category_code":"games_video","description":null,"address1":"1775 Broadway","address2":"","zip_code":"10019","city":"New York","state_code":"NY","country_code":"USA","latitude":40.766332,"longitude":-73.981828,"location":{"type":"Point","coordinates":[-73.981828,40.766332]}},{"name":"Agoracom","category_code":"enterprise","description":"USA Office","address1":"420 Lexington Avenue","address2":"Suite 2620","zip_code":"10170","city":"New York","state_code":"NY","country_code":"USA","latitude":40.752672,"longitude":-73.97593,"location":{"type":"Point","coordinates":[-73.97593,40.752672]}},{"name":"Velocix","category_code":"games_video","description":"New York Office","address1":"1230 Avenue of the Americas","address2":"","zip_code":"10020","city":"New York","state_code":"NY","country_code":"USA","latitude":40.758504,"longitude":-73.980068,"location":{"type":"Point","coordinates":[-73.980068,40.758504]}},{"name":"Advent Software","category_code":"software","description":"Corporate Headquarters:","address1":"600 Townsend Street","address2":"","zip_code":"94103","city":"San Francisco","state_code":"CA","country_code":"USA","latitude":37.771706,"longitude":-122.402683,"location":{"type":"Point","coordinates":[-122.402683,37.771706]}},{"name":"MediaWhiz","category_code":"advertising","description":"","address1":"77 Water Street","address2":"12th Floor","zip_code":"10005","city":"New York","state_code":"NY","country_code":"USA","latitude":40.704622,"longitude":-74.011546,"location":{"type":"Point","coordinates":[-74.011546,40.704622]}},{"name":"Creative Commons","category_code":"web","description":"Headquarters","address1":"171 Second St","address2":"Suite 300","zip_code":"94105","city":"San Francisco","state_code":"CA","country_code":"USA","latitude":37.788457,"longitude":-122.399884,"location":{"type":"Point","coordinates":[-122.399884,37.788457]}},{"name":"SquareTrade","category_code":"hardware","description":null,"address1":"575 Market Street","address2":"10th Floor","zip_code":"94105","city":"San Francisco","state_code":"CA","country_code":"USA","latitude":37.789551,"longitude":-122.40036,"location":{"type":"Point","coordinates":[-122.40036,37.789551]}},{"name":"UnitedLayer","category_code":"network_hosting","description":"San Francisco","address1":"200 Paul Ave.","address2":"Suite 110","zip_code":"94124","city":"San Francisco","state_code":"CA","country_code":"USA","latitude":37.724999,"longitude":-122.397254,"location":{"type":"Point","coordinates":[-122.397254,37.724999]}},{"name":"ServePath","category_code":"hardware","description":null,"address1":"345 Spear Street","address2":"Suite 515","zip_code":"94105","city":"San Francisco","state_code":"CA","country_code":"USA","latitude":37.789803,"longitude":-122.389757,"location":{"type":"Point","coordinates":[-122.389757,37.789803]}},{"name":"Associated Press","category_code":"other","description":"","address1":"450 W. 33rd St.","address2":"","zip_code":"10001","city":"New York","state_code":"NY","country_code":"USA","latitude":40.7535,"longitude":-73.998615,"location":{"type":"Point","coordinates":[-73.998615,40.7535]}},{"name":"Visible World","category_code":"advertising","description":"Headquarters","address1":"460 W. 34th St. Floor 14","address2":"","zip_code":"10001","city":"New York","state_code":"NY","country_code":"USA","latitude":40.75406,"longitude":-73.999003,"location":{"type":"Point","coordinates":[-73.999003,40.75406]}},{"name":"Fog Creek Software","category_code":"software","description":"","address1":"55 Broadway","address2":"Floor 25","zip_code":"10006","city":"New York","state_code":"NY","country_code":"USA","latitude":40.706728,"longitude":-74.012533,"location":{"type":"Point","coordinates":[-74.012533,40.706728]}},{"name":"Scanbuy","category_code":"enterprise","description":"","address1":"10 East 39th Street","address2":"10th Floor","zip_code":"10016","city":"New York","state_code":"NY","country_code":"USA","latitude":40.7512062,"longitude":-73.9815333,"location":{"type":"Point","coordinates":[-73.9815333,40.7512062]}},{"name":"SQLstream","category_code":"analytics","description":"","address1":"1540 Market Street","address2":"Suite 400 - 425","zip_code":"94102","city":"San Francisco","state_code":"CA","country_code":"USA","latitude":37.775058,"longitude":-122.419966,"location":{"type":"Point","coordinates":[-122.419966,37.775058]}},{"name":"RateItAll","category_code":"web","description":"Main Office","address1":"2601 Mission Street","address2":"Suite 402","zip_code":"94110","city":"San Francisco","state_code":"CA","country_code":"USA","latitude":37.755012,"longitude":-122.418137,"location":{"type":"Point","coordinates":[-122.418137,37.755012]}},{"name":"E*Trade","category_code":"finance","description":null,"address1":"135 East 57th Street","address2":"","zip_code":"10022","city":"New York","state_code":"NY","country_code":"USA","latitude":40.76096,"longitude":-73.969237,"location":{"type":"Point","coordinates":[-73.969237,40.76096]}},{"name":"Tealeaf","category_code":"advertising","description":null,"address1":"45 Fremont St.","address2":"Suite 1450","zip_code":"94105","city":"San Francisco","state_code":"CA","country_code":"USA","latitude":37.791242,"longitude":-122.397133,"location":{"type":"Point","coordinates":[-122.397133,37.791242]}},{"name":"MedHelp","category_code":"web","description":"HQ","address1":"929 Market St","address2":"Suite 300","zip_code":"94103","city":"San Francisco","state_code":"CA","country_code":"USA","latitude":37.7746693,"longitude":-122.415199,"location":{"type":"Point","coordinates":[-122.415199,37.7746693]}},{"name":"Netscape","category_code":"software","description":"","address1":"466 Ellis Street","address2":"","zip_code":"94043","city":"Mountain View","state_code":"CA","country_code":"USA","latitude":37.4001507,"longitude":-122.0521992,"location":{"type":"Point","coordinates":[-122.0521992,37.4001507]}},{"name":"[x+1]","category_code":"enterprise","description":"HQ","address1":"315 Park Avenue South","address2":"12th floor","zip_code":"10010","city":"New York","state_code":"NY","country_code":"USA","latitude":40.7455068,"longitude":-73.982624,"location":{"type":"Point","coordinates":[-73.982624,40.7455068]}},{"name":"Geary Interactive","category_code":"advertising","description":"Headquarters","address1":"720 Market Street","address2":"Suite 600","zip_code":"94102","city":"San Francisco","state_code":"CA","country_code":"USA","latitude":37.7872512,"longitude":-122.4039768,"location":{"type":"Point","coordinates":[-122.4039768,37.7872512]}},{"name":"JamBase","category_code":"web","description":"","address1":"1 Zoe St","address2":"","zip_code":"94107","city":"San Francisco","state_code":"CA","country_code":"USA","latitude":37.78054,"longitude":-122.396818,"location":{"type":"Point","coordinates":[-122.396818,37.78054]}},{"name":"Dotmenu","category_code":"web","description":"HQ","address1":"11 Broadway","address2":"16th Floor","zip_code":"10004","city":"New York","state_code":"NY","country_code":"USA","latitude":40.740162,"longitude":-73.993367,"location":{"type":"Point","coordinates":[-73.993367,40.740162]}},{"name":"iWin","category_code":"games_video","description":"","address1":"45 Fremont Street","address2":"Suite 3100","zip_code":"94105","city":"San Francisco","state_code":"CA","country_code":"USA","latitude":37.781689,"longitude":-122.391061,"location":{"type":"Point","coordinates":[-122.391061,37.781689]}},{"name":"Cloudmark","category_code":"security","description":"","address1":"128 King Street","address2":"Second Floor","zip_code":"94107","city":"San Francisco","state_code":"CA","country_code":"USA","latitude":37.779507,"longitude":-122.39071,"location":{"type":"Point","coordinates":[-122.39071,37.779507]}},{"name":"TRUSTe","category_code":"enterprise","description":"","address1":"835 Market Street","address2":"Suite 800","zip_code":"94103","city":"San Francisco","state_code":"CA","country_code":"USA","latitude":37.7886685,"longitude":-122.4005576,"location":{"type":"Point","coordinates":[-122.4005576,37.7886685]}},{"name":"Interpolls","category_code":null,"description":"Eastern Region","address1":"747 Third Ave.","address2":"Suite 25A","zip_code":"10017","city":"New York","state_code":"NY","country_code":"USA","latitude":40.7534549,"longitude":-73.9724886,"location":{"type":"Point","coordinates":[-73.9724886,40.7534549]}},{"name":"iProspect","category_code":"software","description":"","address1":"875 Howard Street","address2":"6th Floor","zip_code":"94103","city":"San Francisco","state_code":"CA","country_code":"USA","latitude":37.7819286,"longitude":-122.4041764,"location":{"type":"Point","coordinates":[-122.4041764,37.7819286]}},{"name":"Birthday Alarm","category_code":"web","description":null,"address1":"333 Bryant Street","address2":"Suite 330","zip_code":"94107","city":"San Francisco","state_code":"CA","country_code":"USA","latitude":37.783834,"longitude":-122.392063,"location":{"type":"Point","coordinates":[-122.392063,37.783834]}},{"name":"Gameloft","category_code":"mobile","description":"New York Office","address1":"45 W. 25th Street","address2":"9th Floor","zip_code":"10010","city":"New York","state_code":"NY","country_code":"USA","latitude":40.744034,"longitude":-73.991034,"location":{"type":"Point","coordinates":[-73.991034,40.744034]}},{"name":"Marvel Entertainment","category_code":"games_video","description":"Marvel Entertainment Inc","address1":"417 5th. Avenue","address2":"","zip_code":"10016","city":"New York","state_code":"NY","country_code":"USA","latitude":40.750576,"longitude":-73.982713,"location":{"type":"Point","coordinates":[-73.982713,40.750576]}},{"name":"Unicast","category_code":"advertising","description":"Headquarters","address1":"205 West 39th Street","address2":"16th Floor","zip_code":"10018","city":"New York","state_code":"NY","country_code":"USA","latitude":40.754699,"longitude":-73.988834,"location":{"type":"Point","coordinates":[-73.988834,40.754699]}},{"name":"Acteva","category_code":"web","description":"","address1":"456 Montgomery St","address2":"8th Floor","zip_code":"94104","city":"San Francisco","state_code":"CA","country_code":"USA","latitude":37.792636,"longitude":-122.398995,"location":{"type":"Point","coordinates":[-122.398995,37.792636]}},{"name":"Razz","category_code":"software","description":"","address1":"208 Utah Street","address2":"Suite 210","zip_code":"94103","city":"San Francisco","state_code":"CA","country_code":"USA","latitude":37.766909,"longitude":-122.406676,"location":{"type":"Point","coordinates":[-122.406676,37.766909]}},{"name":"Clickability","category_code":"enterprise","description":"Headquarters","address1":"300 California Street","address2":"2nd Floor","zip_code":"94104","city":"San Francisco","state_code":"CA","country_code":"USA","latitude":37.7932747,"longitude":-122.399929,"location":{"type":"Point","coordinates":[-122.399929,37.7932747]}},{"name":"WideOrbit","category_code":"advertising","description":"World Headquarters","address1":"1160 Battery","address2":"Suite 300","zip_code":"94111","city":"San Francisco","state_code":"CA","country_code":"USA","latitude":37.7895289,"longitude":-122.3885899,"location":{"type":"Point","coordinates":[-122.3885899,37.7895289]}},{"name":"CPXi","category_code":"web","description":"Headquarters (NYC)","address1":"1441 Broadway","address2":"18th Floor","zip_code":"10018","city":"New York","state_code":"NY","country_code":"USA","latitude":40.7550708,"longitude":-73.9869523,"location":{"type":"Point","coordinates":[-73.9869523,40.7550708]}},{"name":"Q-go","category_code":"software","description":"Q-go USA","address1":"100 Park Avenue","address2":"","zip_code":"NY 10017","city":"New York","state_code":"NY","country_code":"USA","latitude":40.751139,"longitude":-73.978471,"location":{"type":"Point","coordinates":[-73.978471,40.751139]}},{"name":"Farallon Geographics","category_code":"consulting","description":"","address1":"609 Mission Street,","address2":"2nd Floor","zip_code":"94105","city":"San Francisco","state_code":"CA","country_code":"USA","latitude":37.7878037,"longitude":-122.4001578,"location":{"type":"Point","coordinates":[-122.4001578,37.7878037]}},{"name":"eBaum's World","category_code":"games_video","description":"","address1":"612 Howard St.","address2":"Suite 600","zip_code":"94105","city":"San Francisco","state_code":"CA","country_code":"USA","latitude":37.786393,"longitude":-122.3987745,"location":{"type":"Point","coordinates":[-122.3987745,37.786393]}},{"name":"LivePerson","category_code":"software","description":"Corporate Office","address1":"475 10th Avenue","address2":"5th Floor","zip_code":"10018","city":"New York","state_code":"NY","country_code":"USA","latitude":40.751969,"longitude":-73.99031,"location":{"type":"Point","coordinates":[-73.99031,40.751969]}},{"name":"CashEdge","category_code":"web","description":"Corporate Headquarters","address1":"215 Park Avenue South","address2":"Suite 1300","zip_code":"10003","city":"New York","state_code":"NY","country_code":"USA","latitude":40.736796,"longitude":-73.988339,"location":{"type":"Point","coordinates":[-73.988339,40.736796]}},{"name":"Xandros","category_code":"software","description":"","address1":"149 Madison Ave","address2":"Suite 302","zip_code":"10016","city":"New York","state_code":"NY","country_code":"USA","latitude":40.746368,"longitude":-73.983972,"location":{"type":"Point","coordinates":[-73.983972,40.746368]}},{"name":"GoGrid","category_code":"network_hosting","description":"Corporate Office","address1":"2 Harrison Street","address2":"2nd Floor","zip_code":"94105","city":"San Francisco","state_code":"CA","country_code":"USA","latitude":37.7895248,"longitude":-122.3886569,"location":{"type":"Point","coordinates":[-122.3886569,37.7895248]}},{"name":"GoGrid","category_code":"network_hosting","description":"Data Center","address1":"360 Spear Street","address2":"2nd Floor","zip_code":"94105","city":"San Francisco","state_code":"CA","country_code":"USA","latitude":37.78932,"longitude":-122.390058,"location":{"type":"Point","coordinates":[-122.390058,37.78932]}},{"name":"Achievers","category_code":"software","description":"","address1":"181 Fremont Street","address2":"","zip_code":"94105","city":"San Francisco","state_code":"CA","country_code":"USA","latitude":43.637296,"longitude":-79.425455,"location":{"type":"Point","coordinates":[-79.425455,43.637296]}},{"name":"Deloitte","category_code":"consulting","description":"","address1":"1633 Broadway","address2":"","zip_code":"","city":"New York","state_code":"NY","country_code":"USA","latitude":40.7618675,"longitude":-73.9837603,"location":{"type":"Point","coordinates":[-73.9837603,40.7618675]}},{"name":"Premier Staffing","category_code":"consulting","description":"San Francisco","address1":"111 Sutter Street","address2":"Suite 550","zip_code":"94104","city":"San Francisco","state_code":"CA","country_code":"USA","latitude":37.78976,"longitude":-122.402524,"location":{"type":"Point","coordinates":[-122.402524,37.78976]}},{"name":"IDEO","category_code":"consulting","description":"","address1":"28 Mercer Street","address2":"2nd Floor","zip_code":"10013","city":"New York","state_code":"NY","country_code":"USA","latitude":40.721026,"longitude":-74.001614,"location":{"type":"Point","coordinates":[-74.001614,40.721026]}},{"name":"Unisfair","category_code":"enterprise","description":"New York Office","address1":"1250 Broadway","address2":"31st floor","zip_code":"10001","city":"New York","state_code":"NY","country_code":"USA","latitude":40.7482,"longitude":-73.988154,"location":{"type":"Point","coordinates":[-73.988154,40.7482]}},{"name":"Discovery Mining","category_code":"web","description":"Corporate Headquarters","address1":"86 Graham Street","address2":"Presidio of San Francisco, Suite 200","zip_code":"94129-0194","city":"San Francisco","state_code":"CA","country_code":"USA","latitude":37.7982385,"longitude":-122.4587055,"location":{"type":"Point","coordinates":[-122.4587055,37.7982385]}},{"name":"Discovery Mining","category_code":"web","description":"New York Office","address1":"770 Broadway","address2":"2nd Floor, Suite 218","zip_code":"10003","city":"New York","state_code":"NY","country_code":"USA","latitude":40.731118,"longitude":-73.991933,"location":{"type":"Point","coordinates":[-73.991933,40.731118]}},{"name":"ON24","category_code":"web","description":"Corporate Headquarters","address1":"201 3rd Street","address2":"34d Floor","zip_code":"94103","city":"San Francisco","state_code":"CA","country_code":"USA","latitude":37.7850326,"longitude":-122.4004738,"location":{"type":"Point","coordinates":[-122.4004738,37.7850326]}},{"name":"ON24","category_code":"web","description":"New York Office","address1":"31 Howard Street","address2":"4th Floor","zip_code":"10013","city":"New York","state_code":"NY","country_code":"USA","latitude":40.719609,"longitude":-74.000754,"location":{"type":"Point","coordinates":[-74.000754,40.719609]}},{"name":"Caspio","category_code":"web","description":"Headquarters","address1":"485 N. Whisman Rd.","address2":"Suite 200","zip_code":"94043","city":"Mountain View","state_code":"CA","country_code":"USA","latitude":37.401165,"longitude":-122.058128,"location":{"type":"Point","coordinates":[-122.058128,37.401165]}},{"name":"Converseon","category_code":"consulting","description":"","address1":"53 West 36th,","address2":"8th Floor","zip_code":"10018","city":"New York","state_code":"NY","country_code":"USA","latitude":40.750823,"longitude":-73.985833,"location":{"type":"Point","coordinates":[-73.985833,40.750823]}},{"name":"Hands-On Mobile","category_code":"mobile","description":"Corporate Headquarters","address1":"","address2":"","zip_code":"","city":"San Francisco","state_code":"CA","country_code":"USA","latitude":37.775196,"longitude":-122.419204,"location":{"type":"Point","coordinates":[-122.419204,37.775196]}},{"name":"Indextools","category_code":"other","description":"Indextools Americas","address1":"95 Morton Street","address2":"","zip_code":"10014","city":"New York","state_code":"NY","country_code":"USA","latitude":40.731373,"longitude":-74.008584,"location":{"type":"Point","coordinates":[-74.008584,40.731373]}},{"name":"LeadGenesys","category_code":"enterprise","description":"Headquarters","address1":"155 Sansome Street","address2":"6th Floor","zip_code":"94104","city":"San Francisco","state_code":"CA","country_code":"USA","latitude":37.791648,"longitude":-122.401241,"location":{"type":"Point","coordinates":[-122.401241,37.791648]}},{"name":"ICPA","category_code":"consulting","description":"HQ","address1":"1388 Sutter, suite 1210","address2":"","zip_code":"94109","city":"San Francisco","state_code":"CA","country_code":"USA","latitude":37.787645,"longitude":-122.423065,"location":{"type":"Point","coordinates":[-122.423065,37.787645]}},{"name":"Quova","category_code":"other","description":"Corporate Headquarters","address1":"707 California St.","address2":"","zip_code":"94041","city":"Mountain View","state_code":"CA","country_code":"USA","latitude":37.390753,"longitude":-122.07984,"location":{"type":"Point","coordinates":[-122.07984,37.390753]}},{"name":"Recommind","category_code":"enterprise","description":"","address1":"650 California Street","address2":"","zip_code":"94108","city":"San Francisco","state_code":"CA","country_code":"USA","latitude":37.796903,"longitude":-122.404904,"location":{"type":"Point","coordinates":[-122.404904,37.796903]}},{"name":"Innotas","category_code":"software","description":"","address1":"118 2nd Street,","address2":"3rd Floor","zip_code":"94105","city":"San Francisco","state_code":"CA","country_code":"USA","latitude":37.787722,"longitude":-122.3993979,"location":{"type":"Point","coordinates":[-122.3993979,37.787722]}},{"name":"Blogcritics","category_code":"web","description":"","address1":"819 9th Street","address2":"Suite 207","zip_code":"94107","city":"San Francisco","state_code":"CA","country_code":"USA","latitude":37.8255226,"longitude":-122.3693356,"location":{"type":"Point","coordinates":[-122.3693356,37.8255226]}},{"name":"WPP","category_code":"public_relations","description":"","address1":"100 Park Avenue","address2":"","zip_code":"10017-5529","city":"New York","state_code":"NY","country_code":"USA","latitude":40.751513,"longitude":-73.9779465,"location":{"type":"Point","coordinates":[-73.9779465,40.751513]}},{"name":"TradeCard","category_code":"enterprise","description":"Global Headquarters","address1":"75 Maiden Lane","address2":"12th Floor","zip_code":"10038","city":"New York","state_code":"NY","country_code":"USA","latitude":40.707729,"longitude":-74.007801,"location":{"type":"Point","coordinates":[-74.007801,40.707729]}},{"name":"Telespree","category_code":"software","description":"Headquarters","address1":"185 Berry Street","address2":"","zip_code":"","city":"San Francisco","state_code":"CA","country_code":"USA","latitude":37.777092,"longitude":-122.391011,"location":{"type":"Point","coordinates":[-122.391011,37.777092]}},{"name":"AKQA","category_code":"advertising","description":"","address1":"118 King St.","address2":"6th Floor","zip_code":"94107","city":"San Francisco","state_code":"CA","country_code":"USA","latitude":37.779437,"longitude":-122.390254,"location":{"type":"Point","coordinates":[-122.390254,37.779437]}},{"name":"AKQA","category_code":"advertising","description":"","address1":"175 Varick St.","address2":"10th Floor","zip_code":"10014","city":"New York","state_code":"NY","country_code":"USA","latitude":40.727475,"longitude":-74.005489,"location":{"type":"Point","coordinates":[-74.005489,40.727475]}},{"name":"Penguin Computing","category_code":"software","description":"HQ","address1":"501 2nd Street","address2":"Suite 310","zip_code":"94107","city":"San Francisco","state_code":"CA","country_code":"USA","latitude":37.783171,"longitude":-122.392901,"location":{"type":"Point","coordinates":[-122.392901,37.783171]}},{"name":"Vichara Technologies","category_code":"software","description":"New York Office","address1":"111 John Street","address2":"Suite 1801","zip_code":"10038","city":"New York","state_code":"NY","country_code":"USA","latitude":40.7075492,"longitude":-74.0055997,"location":{"type":"Point","coordinates":[-74.0055997,40.7075492]}},{"name":"Finjan","category_code":"enterprise","description":"Finjan Holdings, Inc","address1":"122 East 42nd Street","address2":"Suite 1512","zip_code":"10168","city":"New York","state_code":"NY","country_code":"USA","latitude":37.37027,"longitude":-121.924053,"location":{"type":"Point","coordinates":[-121.924053,37.37027]}},{"name":"Fastmetrics","category_code":"hardware","description":"FastMetrics Office","address1":"1 Hallidie Plaza","address2":"Suite 838","zip_code":"94102","city":"San Francisco","state_code":"CA","country_code":"USA","latitude":37.784137,"longitude":-122.408646,"location":{"type":"Point","coordinates":[-122.408646,37.784137]}},{"name":"Recommind","category_code":"enterprise","description":"","address1":"650 California Street","address2":"","zip_code":"94108","city":"San Francisco","state_code":"CA","country_code":"USA","latitude":37.796903,"longitude":-122.404904,"location":{"type":"Point","coordinates":[-122.404904,37.796903]}},{"name":"Innotas","category_code":"software","description":"","address1":"118 2nd Street,","address2":"3rd Floor","zip_code":"94105","city":"San Francisco","state_code":"CA","country_code":"USA","latitude":37.787722,"longitude":-122.3993979,"location":{"type":"Point","coordinates":[-122.3993979,37.787722]}},{"name":"Blogcritics","category_code":"web","description":"","address1":"819 9th Street","address2":"Suite 207","zip_code":"94107","city":"San Francisco","state_code":"CA","country_code":"USA","latitude":37.8255226,"longitude":-122.3693356,"location":{"type":"Point","coordinates":[-122.3693356,37.8255226]}},{"name":"WPP","category_code":"public_relations","description":"","address1":"100 Park Avenue","address2":"","zip_code":"10017-5529","city":"New York","state_code":"NY","country_code":"USA","latitude":40.751513,"longitude":-73.9779465,"location":{"type":"Point","coordinates":[-73.9779465,40.751513]}},{"name":"TradeCard","category_code":"enterprise","description":"Global Headquarters","address1":"75 Maiden Lane","address2":"12th Floor","zip_code":"10038","city":"New York","state_code":"NY","country_code":"USA","latitude":40.707729,"longitude":-74.007801,"location":{"type":"Point","coordinates":[-74.007801,40.707729]}},{"name":"Telespree","category_code":"software","description":"Headquarters","address1":"185 Berry Street","address2":"","zip_code":"","city":"San Francisco","state_code":"CA","country_code":"USA","latitude":37.777092,"longitude":-122.391011,"location":{"type":"Point","coordinates":[-122.391011,37.777092]}},{"name":"AKQA","category_code":"advertising","description":"","address1":"118 King St.","address2":"6th Floor","zip_code":"94107","city":"San Francisco","state_code":"CA","country_code":"USA","latitude":37.779437,"longitude":-122.390254,"location":{"type":"Point","coordinates":[-122.390254,37.779437]}},{"name":"AKQA","category_code":"advertising","description":"","address1":"175 Varick St.","address2":"10th Floor","zip_code":"10014","city":"New York","state_code":"NY","country_code":"USA","latitude":40.727475,"longitude":-74.005489,"location":{"type":"Point","coordinates":[-74.005489,40.727475]}},{"name":"Penguin Computing","category_code":"software","description":"HQ","address1":"501 2nd Street","address2":"Suite 310","zip_code":"94107","city":"San Francisco","state_code":"CA","country_code":"USA","latitude":37.783171,"longitude":-122.392901,"location":{"type":"Point","coordinates":[-122.392901,37.783171]}},{"name":"Vichara Technologies","category_code":"software","description":"New York Office","address1":"111 John Street","address2":"Suite 1801","zip_code":"10038","city":"New York","state_code":"NY","country_code":"USA","latitude":40.7075492,"longitude":-74.0055997,"location":{"type":"Point","coordinates":[-74.0055997,40.7075492]}},{"name":"Finjan","category_code":"enterprise","description":"Finjan Holdings, Inc","address1":"122 East 42nd Street","address2":"Suite 1512","zip_code":"10168","city":"New York","state_code":"NY","country_code":"USA","latitude":37.37027,"longitude":-121.924053,"location":{"type":"Point","coordinates":[-121.924053,37.37027]}},{"name":"Fastmetrics","category_code":"hardware","description":"FastMetrics Office","address1":"1 Hallidie Plaza","address2":"Suite 838","zip_code":"94102","city":"San Francisco","state_code":"CA","country_code":"USA","latitude":37.784137,"longitude":-122.408646,"location":{"type":"Point","coordinates":[-122.408646,37.784137]}},{"name":"LogLogic","category_code":"security","description":"New York Office","address1":"5 Penn Plaza","address2":"23rd Floor","zip_code":"10001","city":"New York","state_code":"NY","country_code":"USA","latitude":40.749577,"longitude":-73.9916486,"location":{"type":"Point","coordinates":[-73.9916486,40.749577]}},{"name":"NFL","category_code":"sports","description":"HQ","address1":"345 Park Ave","address2":"","zip_code":"10054","city":"New York","state_code":"NY","country_code":"USA","latitude":40.7457865,"longitude":-73.9822265,"location":{"type":"Point","coordinates":[-73.9822265,40.7457865]}},{"name":"F5 Networks","category_code":"other","description":"New York Office","address1":"424 W. 33rd Street","address2":"Suite 530-550","zip_code":"10001","city":"New York","state_code":"NY","country_code":"USA","latitude":40.75304,"longitude":-73.998135,"location":{"type":"Point","coordinates":[-73.998135,40.75304]}},{"name":"Beau-coup Wedding Favors","category_code":"other","description":"Headquarters","address1":"335 E. Middlefield Rd.","address2":"","zip_code":"94043","city":"Mountain View","state_code":"CA","country_code":"USA","latitude":37.406621,"longitude":-122.108719,"location":{"type":"Point","coordinates":[-122.108719,37.406621]}},{"name":"OQO","category_code":"mobile","description":"OQO","address1":"583 Shotwell St.","address2":"","zip_code":"94110","city":"San Francisco","state_code":"CA","country_code":"USA","latitude":37.759117,"longitude":-122.415869,"location":{"type":"Point","coordinates":[-122.415869,37.759117]}},{"name":"Mindjet","category_code":"software","description":"Head Office","address1":"1160 Battery Street East","address2":"4th Floor","zip_code":"94111","city":"San Francisco","state_code":"CA","country_code":"USA","latitude":50.095312,"longitude":9.049981,"location":{"type":"Point","coordinates":[9.049981,50.095312]}},{"name":"Global Relay","category_code":"enterprise","description":"Global Relay","address1":"286 Madison Avenue, 7th Floor","address2":"","zip_code":"10016","city":"New York","state_code":"NY","country_code":"USA","latitude":40.662332,"longitude":-73.982629,"location":{"type":"Point","coordinates":[-73.982629,40.662332]}},{"name":"Papercheck","category_code":"consulting","description":"San Francisco Office","address1":"666 Natoma Street","address2":"","zip_code":"94103","city":"San Francisco","state_code":"CA","country_code":"USA","latitude":37.7875973,"longitude":-122.4035368,"location":{"type":"Point","coordinates":[-122.4035368,37.7875973]}},{"name":"Kiwibox","category_code":"web","description":"","address1":"330 W 38th Street","address2":"Suite 1602","zip_code":"10018","city":"New York","state_code":"NY","country_code":"USA","latitude":40.755243,"longitude":-73.9935,"location":{"type":"Point","coordinates":[-73.9935,40.755243]}},{"name":"Fabian Rossano Studio","category_code":"other","description":"studio","address1":"348 West 14th Street","address2":"Fl 3","zip_code":"10014","city":"New York","state_code":"NY","country_code":"USA","latitude":40.740371,"longitude":-74.004777,"location":{"type":"Point","coordinates":[-74.004777,40.740371]}},{"name":"Warner Music Group","category_code":"other","description":"","address1":"75 Rockefeller Plaza","address2":"","zip_code":"10019","city":"New York","state_code":"NY","country_code":"USA","latitude":40.7592189,"longitude":-73.9783534,"location":{"type":"Point","coordinates":[-73.9783534,40.7592189]}},{"name":"Sparkpr","category_code":"public_relations","description":"San Francisco - HQ","address1":"2 Bryant Street","address2":"Suite 100","zip_code":"94105","city":"San Francisco","state_code":"CA","country_code":"USA","latitude":37.7873938,"longitude":-122.3884419,"location":{"type":"Point","coordinates":[-122.3884419,37.7873938]}},{"name":"Sparkpr","category_code":"public_relations","description":"New York","address1":"30 West 26th Street","address2":"3rd Floor","zip_code":"10010","city":"New York","state_code":"NY","country_code":"USA","latitude":40.7440142,"longitude":-73.989586,"location":{"type":"Point","coordinates":[-73.989586,40.7440142]}},{"name":"Return Path","category_code":"messaging","description":"HQ","address1":"304 Park Ave. South","address2":"7th Floor","zip_code":"10010","city":"New York","state_code":"NY","country_code":"USA","latitude":40.740207,"longitude":-73.987002,"location":{"type":"Point","coordinates":[-73.987002,40.740207]}},{"name":"Next Jump","category_code":"ecommerce","description":"Corporate HQ","address1":"261 Fifth Avenue","address2":"8th Floor","zip_code":"10016","city":"New York","state_code":"NY","country_code":"USA","latitude":40.7451545,"longitude":-73.9869549,"location":{"type":"Point","coordinates":[-73.9869549,40.7451545]}},{"name":"SitePoint","category_code":null,"description":"Sales Office","address1":"410 Townsend St","address2":"","zip_code":"94107","city":"San Francisco","state_code":"CA","country_code":"USA","latitude":37.7753,"longitude":-122.398058,"location":{"type":"Point","coordinates":[-122.398058,37.7753]}},{"name":"Trovix","category_code":"search","description":"","address1":"2151 Landings Drive","address2":"","zip_code":"94043","city":"Mountain View","state_code":"CA","country_code":"USA","latitude":37.420428,"longitude":-122.090769,"location":{"type":"Point","coordinates":[-122.090769,37.420428]}},{"name":"Centro","category_code":"advertising","description":"East","address1":"22 West 21st Street","address2":"Floor 7","zip_code":"10010","city":"New York","state_code":"NY","country_code":"USA","latitude":40.7408753,"longitude":-73.9920174,"location":{"type":"Point","coordinates":[-73.9920174,40.7408753]}},{"name":"Sapient","category_code":"enterprise","description":"New York","address1":"40 Fulton Street","address2":"","zip_code":"10038","city":"New York","state_code":"NY","country_code":"USA","latitude":40.707872,"longitude":-74.004731,"location":{"type":"Point","coordinates":[-74.004731,40.707872]}},{"name":"Sapient","category_code":"enterprise","description":"San Francisco","address1":"101 Howard Street","address2":"","zip_code":"94105","city":"San Francisco","state_code":"CA","country_code":"USA","latitude":37.79088,"longitude":-122.392521,"location":{"type":"Point","coordinates":[-122.392521,37.79088]}},{"name":"Tzunami SharePoint migration","category_code":"software","description":"","address1":"245 Park Ave.","address2":"39th Floor","zip_code":"10167","city":"New York","state_code":"NY","country_code":"USA","latitude":40.754608,"longitude":-73.974674,"location":{"type":"Point","coordinates":[-73.974674,40.754608]}},{"name":"Interpublic Group","category_code":"advertising","description":"","address1":"1114 Avenue of the Americas","address2":"","zip_code":"10036","city":"New York","state_code":"NY","country_code":"USA","latitude":40.754683,"longitude":-73.982666,"location":{"type":"Point","coordinates":[-73.982666,40.754683]}},{"name":"LoopNet","category_code":"ecommerce","description":"LoopNet Headquarters","address1":"185 Berry Street","address2":"Suite 4000","zip_code":"94107","city":"San Francisco","state_code":"CA","country_code":"USA","latitude":37.7759421,"longitude":-122.3931139,"location":{"type":"Point","coordinates":[-122.3931139,37.7759421]}},{"name":"ThoughtWorks Studios","category_code":"software","description":"TW Studios SF","address1":"315 Montgomery St","address2":"16th Floor","zip_code":"94104","city":"San Francisco","state_code":"CA","country_code":"USA","latitude":37.793819,"longitude":-122.395089,"location":{"type":"Point","coordinates":[-122.395089,37.793819]}},{"name":"ABC News Online","category_code":"web","description":"ABC News","address1":"77 W. 66 St.","address2":"","zip_code":"10023","city":"New York","state_code":"NY","country_code":"USA","latitude":40.77353,"longitude":-73.980533,"location":{"type":"Point","coordinates":[-73.980533,40.77353]}},{"name":"Commission Junction","category_code":"advertising","description":"New York Office","address1":"370 Lexington Ave.","address2":"Suite 908","zip_code":"10017","city":"New York","state_code":"NY","country_code":"USA","latitude":40.7508577,"longitude":-73.9765095,"location":{"type":"Point","coordinates":[-73.9765095,40.7508577]}},{"name":"MLB Advanced Media","category_code":"web","description":"","address1":"75 9th Ave","address2":"","zip_code":"10011","city":"New York","state_code":"NY","country_code":"USA","latitude":40.7418877,"longitude":-74.0047466,"location":{"type":"Point","coordinates":[-74.0047466,40.7418877]}},{"name":"ARX","category_code":"software","description":"US Headquarters","address1":"855 Folsom Street","address2":"Suite 939","zip_code":"94107","city":"San Francisco","state_code":"CA","country_code":"USA","latitude":37.7809512,"longitude":-122.4025016,"location":{"type":"Point","coordinates":[-122.4025016,37.7809512]}},{"name":"EVault","category_code":"software","description":"World Headquarters","address1":"201 3rd Street","address2":"Suite 400","zip_code":"94103","city":"San Francisco","state_code":"CA","country_code":"USA","latitude":37.78505,"longitude":-122.399817,"location":{"type":"Point","coordinates":[-122.399817,37.78505]}},{"name":"iPerceptions","category_code":"web","description":"","address1":"575 Madison Avenue","address2":"Suite 1006","zip_code":"10022-2511","city":"New York","state_code":"NY","country_code":"USA","latitude":40.7619759,"longitude":-73.9725773,"location":{"type":"Point","coordinates":[-73.9725773,40.7619759]}},{"name":"LucidMedia","category_code":"advertising","description":"Lucid Media NY","address1":"274 Madison Avenue","address2":"Suite 701","zip_code":"10016","city":"New York","state_code":"NY","country_code":"USA","latitude":40.751336,"longitude":-73.980739,"location":{"type":"Point","coordinates":[-73.980739,40.751336]}},{"name":"Soma Networks","category_code":"network_hosting","description":"","address1":"650 Townsend Street","address2":"Suite 305","zip_code":"94103","city":"San Francisco","state_code":"CA","country_code":"USA","latitude":37.7710402,"longitude":-122.4026325,"location":{"type":"Point","coordinates":[-122.4026325,37.7710402]}},{"name":"Napier Partners","category_code":"other","description":"Napier Partners","address1":"11 E. 44th Street","address2":"Suite 1200","zip_code":"10017","city":"New York","state_code":"NY","country_code":"USA","latitude":40.7543489,"longitude":-73.9789451,"location":{"type":"Point","coordinates":[-73.9789451,40.7543489]}},{"name":"MacArthur Associates","category_code":"other","description":"MacArthur San Francisco","address1":"44 Montgomery St.","address2":"Suite 2350","zip_code":"94104","city":"San Francisco","state_code":"CA","country_code":"USA","latitude":37.789778,"longitude":-122.401736,"location":{"type":"Point","coordinates":[-122.401736,37.789778]}},{"name":"MacArthur Associates","category_code":"other","description":"MacArthur New York","address1":"11 E. 44th St.","address2":"Suite 1700","zip_code":"10017","city":"New York","state_code":"NY","country_code":"USA","latitude":40.7543489,"longitude":-73.9789451,"location":{"type":"Point","coordinates":[-73.9789451,40.7543489]}},{"name":"Jaspersoft","category_code":"software","description":"Headquarters","address1":"350 Rhode Island Street","address2":"Suite 250","zip_code":"94103","city":"San Francisco","state_code":"CA","country_code":"USA","latitude":37.765388,"longitude":-122.403111,"location":{"type":"Point","coordinates":[-122.403111,37.765388]}},{"name":"Envivio","category_code":"software","description":"","address1":"400 Oyster Point Blvd., Suite 325","address2":"","zip_code":"94080","city":"San Francisco","state_code":"CA","country_code":"USA","latitude":37.665469,"longitude":-122.38222,"location":{"type":"Point","coordinates":[-122.38222,37.665469]}},{"name":"BCG Attorney Search","category_code":"legal","description":"BCG Attorney Search","address1":"445 Park Ave","address2":"Fl 9","zip_code":"10022","city":"New York","state_code":"NY","country_code":"USA","latitude":34.1428388,"longitude":-118.1323783,"location":{"type":"Point","coordinates":[-118.1323783,34.1428388]}},{"name":"Bristol-Myers Squibb","category_code":"biotech","description":"HQ","address1":"345 Park Avenue","address2":"","zip_code":"10154","city":"New York","state_code":"NY","country_code":"USA","latitude":40.757716,"longitude":-73.972321,"location":{"type":"Point","coordinates":[-73.972321,40.757716]}},{"name":"Mocana","category_code":"security","description":"Mocana Corporation","address1":"350 Sansome Street, Suite 510","address2":"","zip_code":"94104","city":"San Francisco","state_code":"CA","country_code":"USA","latitude":37.793783,"longitude":-122.401001,"location":{"type":"Point","coordinates":[-122.401001,37.793783]}},{"name":"Hammerhead Systems","category_code":"hardware","description":"HQ","address1":"640 Clyde Court","address2":"","zip_code":"94043","city":"Mountain View","state_code":"CA","country_code":"USA","latitude":37.40006,"longitude":-122.049689,"location":{"type":"Point","coordinates":[-122.049689,37.40006]}},{"name":"LiveVox","category_code":"web","description":"HQ","address1":"450 Sansome Street,","address2":"Suite 900","zip_code":"94111","city":"San Francisco","state_code":"CA","country_code":"USA","latitude":37.794643,"longitude":-122.401144,"location":{"type":"Point","coordinates":[-122.401144,37.794643]}},{"name":"Eastmedia","category_code":"mobile","description":"Eastmedia","address1":"144 W. 37th Street","address2":"Suite 6A","zip_code":"10018","city":"New York","state_code":"NY","country_code":"USA","latitude":40.752409,"longitude":-73.988676,"location":{"type":"Point","coordinates":[-73.988676,40.752409]}},{"name":"NorthStar Systems International","category_code":"software","description":"Headquarters","address1":"575 Market Street","address2":"14th Floor","zip_code":"94105","city":"San Francisco","state_code":"CA","country_code":"USA","latitude":37.789551,"longitude":-122.40036,"location":{"type":"Point","coordinates":[-122.40036,37.789551]}},{"name":"NorthStar Systems International","category_code":"software","description":"New York Office","address1":"14 Wall Street, Suite 1100A","address2":"","zip_code":"10005","city":"New York","state_code":"NY","country_code":"USA","latitude":40.707645,"longitude":-74.010816,"location":{"type":"Point","coordinates":[-74.010816,40.707645]}},{"name":"UGO Entertainment","category_code":"web","description":"","address1":"670 Broadway","address2":"2nd Floor","zip_code":"10012","city":"New York","state_code":"NY","country_code":"USA","latitude":40.727216,"longitude":-73.994797,"location":{"type":"Point","coordinates":[-73.994797,40.727216]}},{"name":"Wall Street Journal","category_code":null,"description":"Wall Street Journal","address1":"1211 Avenue of the Americas","address2":"","zip_code":"10036","city":"New York","state_code":"NY","country_code":"USA","latitude":40.7587059,"longitude":-73.9824129,"location":{"type":"Point","coordinates":[-73.9824129,40.7587059]}},{"name":"BrightTALK","category_code":"software","description":"San Francisco Office","address1":"501 Folsom St","address2":"2nd Floor","zip_code":"94105","city":"San Francisco","state_code":"CA","country_code":"USA","latitude":37.791128,"longitude":-122.398126,"location":{"type":"Point","coordinates":[-122.398126,37.791128]}},{"name":"BrightTALK","category_code":"software","description":"New York Office","address1":"1140 Avenue of the Americas","address2":"9th Floor","zip_code":"10036","city":"New York","state_code":"NY","country_code":"USA","latitude":40.7398335,"longitude":-73.9931582,"location":{"type":"Point","coordinates":[-73.9931582,40.7398335]}},{"name":"[x+1]","category_code":"enterprise","description":"HQ","address1":"315 Park Avenue South","address2":"12th floor","zip_code":"10010","city":"New York","state_code":"NY","country_code":"USA","latitude":40.7455068,"longitude":-73.982624,"location":{"type":"Point","coordinates":[-73.982624,40.7455068]}},{"name":"Pulse Entertainment","category_code":"mobile","description":"","address1":"900 Kearny St. Suite 300","address2":"","zip_code":"94133","city":"San Francisco","state_code":"CA","country_code":"USA","latitude":37.796396,"longitude":-122.404869,"location":{"type":"Point","coordinates":[-122.404869,37.796396]}},{"name":"LesConcierges","category_code":"public_relations","description":"","address1":"301 Howard Street,","address2":"15th Floor","zip_code":"94105","city":"San Francisco","state_code":"CA","country_code":"USA","latitude":37.789518,"longitude":-122.394265,"location":{"type":"Point","coordinates":[-122.394265,37.789518]}},{"name":"Saffron Brand Consultants","category_code":"advertising","description":"New York Office","address1":"441 Broadway","address2":"","zip_code":"10013","city":"New York","state_code":"NY","country_code":"USA","latitude":40.720331,"longitude":-74.001487,"location":{"type":"Point","coordinates":[-74.001487,40.720331]}},{"name":"Granicus","category_code":"software","description":"Headquarters","address1":"600 Harrison Street","address2":"Suite 120","zip_code":"94107","city":"San Francisco","state_code":"CA","country_code":"USA","latitude":37.787445,"longitude":-122.397847,"location":{"type":"Point","coordinates":[-122.397847,37.787445]}},{"name":"FirstRain","category_code":"analytics","description":"FirstRain New York","address1":"60 East 42nd Street","address2":"Suite 3030","zip_code":"10165","city":"New York","state_code":"NY","country_code":"USA","latitude":40.7521126,"longitude":-73.9786947,"location":{"type":"Point","coordinates":[-73.9786947,40.7521126]}},{"name":"TravelCLICK","category_code":"hospitality","description":"Corporate Headquarters","address1":"7 Times Square","address2":"38th Floor","zip_code":"10036","city":"New York","state_code":"NY","country_code":"USA","latitude":40.755437,"longitude":-73.9868495,"location":{"type":"Point","coordinates":[-73.9868495,40.755437]}},{"name":"Good Technology","category_code":"mobile","description":"","address1":"100 Park Avenue","address2":"Suite 1600","zip_code":"10017","city":"New York","state_code":"NY","country_code":"USA","latitude":40.7511339,"longitude":-73.978807,"location":{"type":"Point","coordinates":[-73.978807,40.7511339]}},{"name":"ReflexPhotonics","category_code":"hardware","description":"","address1":"615 National Avenue, Suite 210","address2":"","zip_code":"94043","city":"Mountain View","state_code":"CA","country_code":"USA","latitude":37.401951,"longitude":-122.053791,"location":{"type":"Point","coordinates":[-122.053791,37.401951]}},{"name":"Glu Mobile","category_code":"mobile","description":"","address1":"45 Fremont St","address2":"Suite 2800","zip_code":"94105","city":"San Francisco","state_code":"CA","country_code":"USA","latitude":37.7911371,"longitude":-122.3973539,"location":{"type":"Point","coordinates":[-122.3973539,37.7911371]}},{"name":"Neocase Software","category_code":"software","description":"The Americas","address1":"55 Hawthorne St. Suite 610","address2":"","zip_code":"94105","city":"San Francisco","state_code":"CA","country_code":"USA","latitude":37.785655,"longitude":-122.398393,"location":{"type":"Point","coordinates":[-122.398393,37.785655]}},{"name":"Riverbed Technology","category_code":"software","description":"Headquarters","address1":"199 Fremont St.","address2":"","zip_code":"94105","city":"San Francisco","state_code":"CA","country_code":"USA","latitude":37.7892685,"longitude":-122.3951844,"location":{"type":"Point","coordinates":[-122.3951844,37.7892685]}},{"name":"Traiana","category_code":null,"description":"","address1":"51 East 42nd St.","address2":"10th floor","zip_code":"10017","city":"New York","state_code":"NY","country_code":"USA","latitude":40.752844,"longitude":-73.978324,"location":{"type":"Point","coordinates":[-73.978324,40.752844]}},{"name":"Brightidea","category_code":"software","description":"Headquarters","address1":"101 Montgomery St","address2":"Ste 2500","zip_code":"94104","city":"San Francisco","state_code":"CA","country_code":"USA","latitude":37.7793652,"longitude":-122.3952515,"location":{"type":"Point","coordinates":[-122.3952515,37.7793652]}},{"name":"Visage Mobile","category_code":"enterprise","description":"HQ","address1":"500 Sansome Street","address2":"Suite 300","zip_code":"94111","city":"San Francisco","state_code":"CA","country_code":"USA","latitude":37.795141,"longitude":-122.401194,"location":{"type":"Point","coordinates":[-122.401194,37.795141]}},{"name":"TheMarkets","category_code":"web","description":"","address1":"810 Seventh Avenue","address2":"","zip_code":"10019","city":"New York","state_code":"NY","country_code":"USA","latitude":40.762674,"longitude":-73.9821315,"location":{"type":"Point","coordinates":[-73.9821315,40.762674]}},{"name":"ScienCentral","category_code":"other","description":"ScienCentral Inc.","address1":"248 W 35th St.","address2":"17th Floor","zip_code":"10001","city":"New York","state_code":"NY","country_code":"USA","latitude":40.752224,"longitude":-73.99211,"location":{"type":"Point","coordinates":[-73.99211,40.752224]}},{"name":"MindSmack","category_code":"games_video","description":"MindSmack HQ","address1":"311 West 43rd Street","address2":"Penthouse","zip_code":"10036","city":"New York","state_code":"NY","country_code":"USA","latitude":40.758492,"longitude":-73.989987,"location":{"type":"Point","coordinates":[-73.989987,40.758492]}},{"name":"Wire2Air","category_code":"mobile","description":"Wire2Air Mobile solutions","address1":"228 Park Ave S","address2":"","zip_code":"10003","city":"New York","state_code":"NY","country_code":"USA","latitude":40.4035437,"longitude":-74.5081114,"location":{"type":"Point","coordinates":[-74.5081114,40.4035437]}},{"name":"iPayStation","category_code":"software","description":"New York Office","address1":"825 Third Avenue","address2":"6th Floor","zip_code":"10022","city":"New York","state_code":"NY","country_code":"USA","latitude":40.7564786,"longitude":-73.9702711,"location":{"type":"Point","coordinates":[-73.9702711,40.7564786]}},{"name":"Major League Gaming","category_code":"games_video","description":"Corporate Headquarters","address1":"3 Park Avenue","address2":"32nd Floor","zip_code":"10016","city":"New York","state_code":"NY","country_code":"USA","latitude":40.752672,"longitude":-73.97593,"location":{"type":"Point","coordinates":[-73.97593,40.752672]}},{"name":"CogniFit","category_code":"web","description":"US Office","address1":"P.O. Box 7360","address2":"","zip_code":"10116","city":"New York","state_code":"NY","country_code":"USA","latitude":47.6023367,"longitude":-122.2850112,"location":{"type":"Point","coordinates":[-122.2850112,47.6023367]}},{"name":"McKinley Marketing Partners","category_code":"consulting","description":"Northeast Office","address1":"445 Park Avenue","address2":"9th. floor","zip_code":"10022","city":"New York","state_code":"NY","country_code":"USA","latitude":40.7615818,"longitude":-73.970624,"location":{"type":"Point","coordinates":[-73.970624,40.7615818]}},{"name":"JustGive","category_code":"other","description":"JustGive Headquarters","address1":"312 Sutter Street","address2":"Suite 410","zip_code":"94108","city":"San Francisco","state_code":"CA","country_code":"USA","latitude":37.789833,"longitude":-122.405863,"location":{"type":"Point","coordinates":[-122.405863,37.789833]}},{"name":"Workbridge Associates","category_code":"other","description":"NEW YORK","address1":"11 East 44th Street","address2":"Suite 1200","zip_code":"10017","city":"New York","state_code":"NY","country_code":"USA","latitude":40.7543489,"longitude":-73.9789451,"location":{"type":"Point","coordinates":[-73.9789451,40.7543489]}},{"name":"Workbridge Associates","category_code":"other","description":"SAN FRANCISCO","address1":"44 Montgomery Street","address2":"Suite 2350","zip_code":"94104","city":"San Francisco","state_code":"CA","country_code":"USA","latitude":37.789778,"longitude":-122.401736,"location":{"type":"Point","coordinates":[-122.401736,37.789778]}},{"name":"Jobspring Partners","category_code":"other","description":"SAN FRANCISCO","address1":"33 New Montgomery Street","address2":"Suite 400","zip_code":"94105","city":"San Francisco","state_code":"CA","country_code":"USA","latitude":37.788653,"longitude":-122.401333,"location":{"type":"Point","coordinates":[-122.401333,37.788653]}},{"name":"Hirshorn Zuckerman Design Group","category_code":"advertising","description":"","address1":"","address2":"","zip_code":"","city":"New York","state_code":"NY","country_code":"USA","latitude":40.756054,"longitude":-73.986951,"location":{"type":"Point","coordinates":[-73.986951,40.756054]}},{"name":"Cellmania","category_code":"mobile","description":"","address1":"82 Pioneer Way, Suite 108","address2":"","zip_code":"94041","city":"Mountain View","state_code":"CA","country_code":"USA","latitude":37.389378,"longitude":-122.06709,"location":{"type":"Point","coordinates":[-122.06709,37.389378]}},{"name":"Lingo24","category_code":"public_relations","description":"New York Office","address1":"410 Park Avenue 15th Floor, Suite 1530","address2":"","zip_code":"NY 10022","city":"New York","state_code":"NY","country_code":"USA","latitude":43.0480695,"longitude":-78.8807985,"location":{"type":"Point","coordinates":[-78.8807985,43.0480695]}},{"name":"SEO Expert","category_code":"search","description":"Headquarters","address1":"410 Park Avenue","address2":"15th Floor","zip_code":"10022","city":"New York","state_code":"NY","country_code":"USA","latitude":40.760283,"longitude":-73.972262,"location":{"type":"Point","coordinates":[-73.972262,40.760283]}},{"name":"amfAR","category_code":"biotech","description":"World Headquarters","address1":"120 Wall Street","address2":"13th Floor","zip_code":"10019","city":"New York","state_code":"NY","country_code":"USA","latitude":40.704708,"longitude":-74.005997,"location":{"type":"Point","coordinates":[-74.005997,40.704708]}},{"name":"Kaseya","category_code":"software","description":"Kaseya North America","address1":"160 Spear Street","address2":"Suite 1220","zip_code":"94105","city":"San Francisco","state_code":"CA","country_code":"USA","latitude":37.791575,"longitude":-122.39339,"location":{"type":"Point","coordinates":[-122.39339,37.791575]}},{"name":"TMP Directional Marketing","category_code":"advertising","description":"Corporate Headquarters","address1":"317 Madison Ave.","address2":"Suite 2310","zip_code":"NY 10017","city":"New York","state_code":"NY","country_code":"USA","latitude":40.7530803,"longitude":-73.9790822,"location":{"type":"Point","coordinates":[-73.9790822,40.7530803]}},{"name":"Riviera Partners","category_code":"other","description":"Company HQ","address1":"185 Berry St.","address2":"Suite 2400","zip_code":"94107","city":"San Francisco","state_code":"CA","country_code":"USA","latitude":37.7766184,"longitude":-122.3938931,"location":{"type":"Point","coordinates":[-122.3938931,37.7766184]}},{"name":"vLinx","category_code":"other","description":"US Office","address1":"Suite 500","address2":"Embarcadero Center","zip_code":"94111","city":"San Francisco","state_code":"CA","country_code":"USA","latitude":37.8047037,"longitude":-122.4134434,"location":{"type":"Point","coordinates":[-122.4134434,37.8047037]}},{"name":"PB Strategic Consultancy","category_code":"mobile","description":"Bay Area Office","address1":"","address2":"","zip_code":"94110","city":"San Francisco","state_code":"CA","country_code":"USA","latitude":37.7581148,"longitude":-122.4184108,"location":{"type":"Point","coordinates":[-122.4184108,37.7581148]}},{"name":"Bluewolf","category_code":"consulting","description":"Worldwide Headquarters","address1":"11 East 26th Street","address2":"21st Floor","zip_code":"10010","city":"New York","state_code":"NY","country_code":"USA","latitude":40.743616,"longitude":-73.9880796,"location":{"type":"Point","coordinates":[-73.9880796,40.743616]}},{"name":"Bluewolf","category_code":"consulting","description":"San Francisco Office","address1":"100 Spear Street","address2":"Suite 810","zip_code":"94105","city":"San Francisco","state_code":"CA","country_code":"USA","latitude":37.79215,"longitude":-122.394,"location":{"type":"Point","coordinates":[-122.394,37.79215]}},{"name":"NaturalMotion","category_code":"games_video","description":"San Francisco","address1":"143 2nd Street","address2":"Fifth Floor","zip_code":"94105","city":"San Francisco","state_code":"CA","country_code":"USA","latitude":37.7875304,"longitude":-122.3989996,"location":{"type":"Point","coordinates":[-122.3989996,37.7875304]}},{"name":"Control Group","category_code":"consulting","description":"Headquarters","address1":"233 Broadway","address2":"21st Floor","zip_code":"10279","city":"New York","state_code":"NY","country_code":"USA","latitude":40.7124151,"longitude":-74.007767,"location":{"type":"Point","coordinates":[-74.007767,40.7124151]}},{"name":"CPM Braxis","category_code":"consulting","description":"CPM Braxis","address1":"415 Madison Ave","address2":"14th fl","zip_code":"10017","city":"New York","state_code":"NY","country_code":"USA","latitude":40.756799,"longitude":-73.9763479,"location":{"type":"Point","coordinates":[-73.9763479,40.756799]}},{"name":"Netbiscuits","category_code":"mobile","description":"San Francisco","address1":"Suite 2200","address2":"425 Market Street","zip_code":"94105","city":"San Francisco","state_code":"CA","country_code":"USA","latitude":37.7550372,"longitude":-122.4264417,"location":{"type":"Point","coordinates":[-122.4264417,37.7550372]}},{"name":"Corvil","category_code":"other","description":"New York","address1":"777 Third Ave.","address2":"Suite 21B","zip_code":"10017","city":"New York","state_code":"NY","country_code":"USA","latitude":40.7547187,"longitude":-73.9711073,"location":{"type":"Point","coordinates":[-73.9711073,40.7547187]}},{"name":"Minyanville","category_code":"web","description":"Corporate Headquarters","address1":"257 Park Ave South","address2":"","zip_code":"10010","city":"New York","state_code":"NY","country_code":"USA","latitude":40.755635,"longitude":-73.971509,"location":{"type":"Point","coordinates":[-73.971509,40.755635]}},{"name":"Tellme","category_code":"mobile","description":"","address1":"1310 Villa Street","address2":"","zip_code":"94041","city":"Mountain View","state_code":"CA","country_code":"USA","latitude":37.396062,"longitude":-122.084505,"location":{"type":"Point","coordinates":[-122.084505,37.396062]}},{"name":"RavenPack","category_code":"software","description":"US Sales Office","address1":"100 Park Ave. Suite 1600","address2":"","zip_code":"10017","city":"New York","state_code":"NY","country_code":"USA","latitude":40.751293,"longitude":-73.978887,"location":{"type":"Point","coordinates":[-73.978887,40.751293]}},{"name":"WiFilez","category_code":null,"description":"main office","address1":"","address2":"","zip_code":"10014","city":"New York","state_code":"NY","country_code":"USA","latitude":40.734331,"longitude":-74.005661,"location":{"type":"Point","coordinates":[-74.005661,40.734331]}},{"name":"Five Prime Therapeutics","category_code":"biotech","description":"","address1":"1650 Owens Street","address2":"Suite 200","zip_code":"94158-2216","city":"San Francisco","state_code":"CA","country_code":"USA","latitude":37.7676285,"longitude":-122.393799,"location":{"type":"Point","coordinates":[-122.393799,37.7676285]}},{"name":"L'Atelier BNP Paribas","category_code":"consulting","description":"US Office","address1":"2415 Third Street, suite 231","address2":"","zip_code":"94107","city":"San Francisco","state_code":"CA","country_code":"USA","latitude":37.7577648,"longitude":-122.3882112,"location":{"type":"Point","coordinates":[-122.3882112,37.7577648]}},{"name":"Springo","category_code":"web","description":"","address1":"608 5th Avenue","address2":"Suite 300","zip_code":"10020","city":"New York","state_code":"NY","country_code":"USA","latitude":40.758062,"longitude":-73.978432,"location":{"type":"Point","coordinates":[-73.978432,40.758062]}},{"name":"Viator","category_code":"web","description":"Viator, Inc.","address1":"657 Mission Street","address2":"5th Floor","zip_code":"94105","city":"San Francisco","state_code":"CA","country_code":"USA","latitude":37.78671,"longitude":-122.40084,"location":{"type":"Point","coordinates":[-122.40084,37.78671]}},{"name":"Synesis IT","category_code":"consulting","description":"Synesis IT","address1":"43 W 33rd St","address2":"","zip_code":"10001","city":"New York","state_code":"NY","country_code":"USA","latitude":40.748873,"longitude":-73.987106,"location":{"type":"Point","coordinates":[-73.987106,40.748873]}},{"name":"Logicworks","category_code":"network_hosting","description":"","address1":"155 Avenue of the Americas","address2":"Fifth Floor","zip_code":"10013","city":"New York","state_code":"NY","country_code":"USA","latitude":40.7254129,"longitude":-74.0045549,"location":{"type":"Point","coordinates":[-74.0045549,40.7254129]}},{"name":"NetLogic Microsystems","category_code":"semiconductor","description":"Headquarters","address1":"1875 Charleston Road","address2":"","zip_code":"94043-1215","city":"Mountain View","state_code":"CA","country_code":"USA","latitude":37.420408,"longitude":-122.088466,"location":{"type":"Point","coordinates":[-122.088466,37.420408]}},{"name":"Osprey Pharmaceuticals USA","category_code":"biotech","description":"","address1":"","address2":"","zip_code":"","city":"San Francisco","state_code":"CA","country_code":"USA","latitude":37.775196,"longitude":-122.419204,"location":{"type":"Point","coordinates":[-122.419204,37.775196]}},{"name":"UTOPY","category_code":"software","description":"","address1":"1550 Bryant St.","address2":"Suite 400","zip_code":"94103","city":"San Francisco","state_code":"CA","country_code":"USA","latitude":37.767575,"longitude":-122.411157,"location":{"type":"Point","coordinates":[-122.411157,37.767575]}},{"name":"Connectiva Systems","category_code":"software","description":"","address1":"19 W44th Street","address2":"Suite 611-12","zip_code":"10036","city":"New York","state_code":"NY","country_code":"USA","latitude":40.755531,"longitude":-73.980861,"location":{"type":"Point","coordinates":[-73.980861,40.755531]}},{"name":"YCD Multimedia","category_code":"software","description":"","address1":"104 West 27th Street","address2":"7th Floor","zip_code":"NY 10001","city":"New York","state_code":"NY","country_code":"USA","latitude":40.745454,"longitude":-73.991674,"location":{"type":"Point","coordinates":[-73.991674,40.745454]}},{"name":"ZoomSystems","category_code":"hardware","description":"Corporate Headquarters","address1":"22 4th Street, Floor 16","address2":"","zip_code":"94103","city":"San Francisco","state_code":"CA","country_code":"USA","latitude":37.781689,"longitude":-122.391061,"location":{"type":"Point","coordinates":[-122.391061,37.781689]}},{"name":"Exent","category_code":"games_video","description":"Sales & Marketing","address1":"632 W. 28th St.","address2":"8th Floor","zip_code":"10001","city":"New York","state_code":"NY","country_code":"USA","latitude":40.7523796,"longitude":-74.005568,"location":{"type":"Point","coordinates":[-74.005568,40.7523796]}},{"name":"Exent","category_code":"games_video","description":"Premium Services","address1":"685 Market Street","address2":"Suite 560","zip_code":"94105","city":"San Francisco","state_code":"CA","country_code":"USA","latitude":37.787646,"longitude":-122.402759,"location":{"type":"Point","coordinates":[-122.402759,37.787646]}},{"name":"Audience","category_code":"semiconductor","description":"","address1":"440 Clyde Avenue","address2":"","zip_code":"94043","city":"Mountain View","state_code":"CA","country_code":"USA","latitude":37.397602,"longitude":-122.047546,"location":{"type":"Point","coordinates":[-122.047546,37.397602]}},{"name":"Mondo Media","category_code":"games_video","description":"Headquarters","address1":"550 15TH ST","address2":"STE 31","zip_code":"94103","city":"San Francisco","state_code":"CA","country_code":"USA","latitude":37.764169,"longitude":-122.402021,"location":{"type":"Point","coordinates":[-122.402021,37.764169]}},{"name":"Teliris","category_code":"public_relations","description":"HQ","address1":"100 William Street, Suite 1825","address2":"","zip_code":"10038","city":"New York","state_code":"NY","country_code":"USA","latitude":42.9029654,"longitude":-78.883572,"location":{"type":"Point","coordinates":[-78.883572,42.9029654]}},{"name":"WiNetworks","category_code":"mobile","description":"HQ","address1":"555 West 57th Street, Suite 1326","address2":"","zip_code":"10019","city":"New York","state_code":"NY","country_code":"USA","latitude":40.770437,"longitude":-73.990426,"location":{"type":"Point","coordinates":[-73.990426,40.770437]}},{"name":"Jasper Design Automation","category_code":"software","description":"HQ","address1":"100 View Street, Suite 101","address2":"","zip_code":"94041","city":"Mountain View","state_code":"CA","country_code":"USA","latitude":37.393536,"longitude":-122.076747,"location":{"type":"Point","coordinates":[-122.076747,37.393536]}},{"name":"ExploraMed","category_code":"medical","description":"","address1":"2570 W. El Camino Real","address2":"Suite 310","zip_code":"94040","city":"Mountain View","state_code":"CA","country_code":"USA","latitude":37.400945,"longitude":-122.111318,"location":{"type":"Point","coordinates":[-122.111318,37.400945]}},{"name":"Aleri","category_code":"software","description":"New York","address1":"75 Rockefeller Plaza, 18th Floor","address2":"","zip_code":"10019","city":"New York","state_code":"NY","country_code":"USA","latitude":40.7592189,"longitude":-73.9783534,"location":{"type":"Point","coordinates":[-73.9783534,40.7592189]}},{"name":"Aleri","category_code":"software","description":"Silicon Valley","address1":"82 Pioneer Way","address2":"","zip_code":"94047","city":"Mountain View","state_code":"CA","country_code":"USA","latitude":37.389378,"longitude":-122.06709,"location":{"type":"Point","coordinates":[-122.06709,37.389378]}},{"name":"TeachScape","category_code":"software","description":"","address1":"71 Stevenson St.","address2":"5th Floor","zip_code":"94105","city":"San Francisco","state_code":"CA","country_code":"USA","latitude":37.7869047,"longitude":-122.4043924,"location":{"type":"Point","coordinates":[-122.4043924,37.7869047]}},{"name":"Calypso Technology","category_code":"software","description":"","address1":"595 Market Street","address2":"Suite 1800","zip_code":"94105","city":"San Francisco","state_code":"CA","country_code":"USA","latitude":37.789318,"longitude":-122.400655,"location":{"type":"Point","coordinates":[-122.400655,37.789318]}},{"name":"Sky Bird Travel  Tours","category_code":"other","description":"","address1":"350 Fifth Avenue","address2":"Suite 610","zip_code":"10118","city":"New York","state_code":"NY","country_code":"USA","latitude":40.7483487,"longitude":-73.984615,"location":{"type":"Point","coordinates":[-73.984615,40.7483487]}},{"name":"CPower","category_code":"cleantech","description":"HQ","address1":"17 State Street","address2":"19th floor, Suite 1910","zip_code":"10004","city":"New York","state_code":"NY","country_code":"USA","latitude":40.756054,"longitude":-73.986951,"location":{"type":"Point","coordinates":[-73.986951,40.756054]}},{"name":"Ponte Solutions","category_code":"software","description":"HQ","address1":"2570 West El Camino Real","address2":"Suite 250","zip_code":"94040","city":"Mountain View","state_code":"CA","country_code":"USA","latitude":37.400945,"longitude":-122.111318,"location":{"type":"Point","coordinates":[-122.111318,37.400945]}},{"name":"Datum Legal","category_code":"software","description":"","address1":"117 west 7th Street","address2":"1 Floor","zip_code":"10017","city":"New York","state_code":"NY","country_code":"USA","latitude":40.751804,"longitude":-73.972365,"location":{"type":"Point","coordinates":[-73.972365,40.751804]}},{"name":"Embarcadero Technologies","category_code":"software","description":"Corporate Headquarters","address1":"100 California Street","address2":"12th Floor","zip_code":"94111","city":"San Francisco","state_code":"CA","country_code":"USA","latitude":37.793949,"longitude":-122.398062,"location":{"type":"Point","coordinates":[-122.398062,37.793949]}},{"name":"Vertro","category_code":"software","description":"","address1":"143 Varick Street","address2":"","zip_code":"10013","city":"New York","state_code":"NY","country_code":"USA","latitude":40.72616,"longitude":-74.006023,"location":{"type":"Point","coordinates":[-74.006023,40.72616]}}]