[{"Brand":"Starbucks","Name":"Washington Hgts\/181st St","City":"New York","Country":"US","Latitude":40.851,"Longitude":-73.938421},{"Brand":"Starbucks","Name":"168th & Broadway","City":"New York","Country":"US","Latitude":40.84135,"Longitude":-73.939822},{"Brand":"Starbucks","Name":"145th & Bradhurst","City":"New York","Country":"US","Latitude":40.823382,"Longitude":-73.942611},{"Brand":"Starbucks","Name":"Target East River Plaza T-2380","City":"New York","Country":"US","Latitude":40.795688,"Longitude":-73.932552},{"Brand":"Starbucks","Name":"125th Street and Lenox","City":"New York","Country":"US","Latitude":40.807809,"Longitude":-73.945108},{"Brand":"Starbucks","Name":"125th St. btwn Adam Clayton & FDB","City":"New York","Country":"US","Latitude":40.808948,"Longitude":-73.948228},{"Brand":"Starbucks","Name":"118th & Frederick Douglas Blvd.","City":"New York","Country":"US","Latitude":40.805915,"Longitude":-73.954495},{"Brand":"Starbucks","Name":"96th & Lexington Ave","City":"New York","Country":"US","Latitude":40.785886,"Longitude":-73.950919},{"Brand":"Starbucks","Name":"90th & First","City":"New York","Country":"US","Latitude":40.779119,"Longitude":-73.947474},{"Brand":"Starbucks","Name":"96th & Madison","City":"New York","Country":"US","Latitude":40.787139,"Longitude":-73.954486},{"Brand":"Starbucks","Name":"92nd & 3rd","City":"New York","Country":"US","Latitude":40.782627,"Longitude":-73.951431},{"Brand":"Starbucks","Name":"85th & First","City":"New York","Country":"US","Latitude":40.776103,"Longitude":-73.949968},{"Brand":"Starbucks","Name":"87th & Lexington","City":"New York","Country":"US","Latitude":40.780139,"Longitude":-73.955346},{"Brand":"Starbucks","Name":"80th & York","City":"New York","Country":"US","Latitude":40.772414,"Longitude":-73.949904},{"Brand":"Starbucks","Name":"Lexington & 85th","City":"New York","Country":"US","Latitude":40.778649,"Longitude":-73.956036},{"Brand":"Starbucks","Name":"84th & Third Ave","City":"New York","Country":"US","Latitude":40.777492,"Longitude":-73.955133},{"Brand":"Starbucks","Name":"Second @ 81st","City":"New York","Country":"US","Latitude":40.774639,"Longitude":-73.95433},{"Brand":"Starbucks","Name":"1st Avenue & 75th St.","City":"New York","Country":"US","Latitude":40.770031,"Longitude":-73.954631},{"Brand":"Starbucks","Name":"76th & Second","City":"New York","Country":"US","Latitude":40.771213,"Longitude":-73.956828},{"Brand":"Starbucks","Name":"Lexington & 78th","City":"New York","Country":"US","Latitude":40.774115,"Longitude":-73.959318},{"Brand":"Starbucks","Name":"69th & First","City":"New York","Country":"US","Latitude":40.765864,"Longitude":-73.957431},{"Brand":"Starbucks","Name":"Roosevelt Island","City":"New York","Country":"US","Latitude":40.759326,"Longitude":-73.95289},{"Brand":"Starbucks","Name":"Third @ 66th","City":"New York","Country":"US","Latitude":40.765935,"Longitude":-73.963591},{"Brand":"Starbucks","Name":"60th & First","City":"New York","Country":"US","Latitude":40.760348,"Longitude":-73.961138},{"Brand":"Starbucks","Name":"Third & 60th","City":"New York","Country":"US","Latitude":40.762394,"Longitude":-73.965745},{"Brand":"Starbucks","Name":"Bloomberg Building","City":"New York","Country":"US","Latitude":40.761401,"Longitude":-73.967862},{"Brand":"Starbucks","Name":"135 E 57 Street (New World)","City":"New York","Country":"US","Latitude":40.760965,"Longitude":-73.96921},{"Brand":"Starbucks","Name":"57th & Lexington","City":"New York","Country":"US","Latitude":40.761088,"Longitude":-73.969984},{"Brand":"Starbucks","Name":"55th & Lexington","City":"New York","Country":"US","Latitude":40.759446,"Longitude":-73.969979},{"Brand":"Starbucks","Name":"53rd & Lexington","City":"New York","Country":"US","Latitude":40.758743,"Longitude":-73.97094},{"Brand":"Starbucks","Name":"50th & Second","City":"New York","Country":"US","Latitude":40.755042,"Longitude":-73.968613},{"Brand":"Starbucks","Name":"52nd & Lexington","City":"New York","Country":"US","Latitude":40.757616,"Longitude":-73.970857},{"Brand":"Starbucks","Name":"50th & Lexington","City":"New York","Country":"US","Latitude":40.756861,"Longitude":-73.972635},{"Brand":"Starbucks","Name":"48th & 3rd","City":"New York","Country":"US","Latitude":40.754122,"Longitude":-73.971714},{"Brand":"Starbucks","Name":"48th & Lexington","City":"New York","Country":"US","Latitude":40.755021,"Longitude":-73.973223},{"Brand":"Starbucks","Name":"B'way & 114 Street (New World)","City":"New York","Country":"US","Latitude":40.807108,"Longitude":-73.96491},{"Brand":"Starbucks","Name":"111th & Broadway","City":"New York","Country":"US","Latitude":40.804695,"Longitude":-73.96667},{"Brand":"Starbucks","Name":"103rd & Broadway","City":"New York","Country":"US","Latitude":40.798882,"Longitude":-73.968372},{"Brand":"Starbucks","Name":"95th & Broadway","City":"New York","Country":"US","Latitude":40.793864,"Longitude":-73.972744},{"Brand":"Starbucks","Name":"93rd and Broadway","City":"New York","Country":"US","Latitude":40.792522,"Longitude":-73.973027},{"Brand":"Starbucks","Name":"86th & Columbus","City":"New York","Country":"US","Latitude":40.786704,"Longitude":-73.972244},{"Brand":"Starbucks","Name":"Broadway btwn 87th & 88th","City":"New York","Country":"US","Latitude":40.789286,"Longitude":-73.975324},{"Brand":"Starbucks","Name":"81st & Columbus","City":"New York","Country":"US","Latitude":40.783633,"Longitude":-73.974456},{"Brand":"Starbucks","Name":"Broadway @ 81st","City":"New York","Country":"US","Latitude":40.784905,"Longitude":-73.978696},{"Brand":"Starbucks","Name":"76th & Columbus","City":"New York","Country":"US","Latitude":40.779982,"Longitude":-73.977146},{"Brand":"Starbucks","Name":"73rd & Columbus","City":"New York","Country":"US","Latitude":40.777949,"Longitude":-73.978175},{"Brand":"Starbucks","Name":"2138 Broadway","City":"New York","Country":"US","Latitude":40.781019,"Longitude":-73.981072},{"Brand":"Starbucks","Name":"70th & Broadway","City":"New York","Country":"US","Latitude":40.777773,"Longitude":-73.982557},{"Brand":"Starbucks","Name":"Columbus @ 67th","City":"New York","Country":"US","Latitude":40.774211,"Longitude":-73.981356},{"Brand":"Starbucks","Name":"63rd & Broadway","City":"New York","Country":"US","Latitude":40.771365,"Longitude":-73.982591},{"Brand":"Starbucks","Name":"Trump Tower","City":"New York","Country":"US","Latitude":40.762555,"Longitude":-73.974236},{"Brand":"Starbucks","Name":"SONY","City":"New York","Country":"US","Latitude":40.761478,"Longitude":-73.973501},{"Brand":"Starbucks","Name":"Sixth & 58th","City":"New York","Country":"US","Latitude":40.764767,"Longitude":-73.97709},{"Brand":"Starbucks","Name":"W. 56th & 6th","City":"New York","Country":"US","Latitude":40.763839,"Longitude":-73.977174},{"Brand":"Starbucks","Name":"60th & Broadway-II","City":"New York","Country":"US","Latitude":40.768869,"Longitude":-73.982343},{"Brand":"Starbucks","Name":"Park Avenue Plaza","City":"New York","Country":"US","Latitude":40.759285,"Longitude":-73.973516},{"Brand":"Starbucks","Name":"43rd St & Third Ave","City":"New York","Country":"US","Latitude":40.751585,"Longitude":-73.97359},{"Brand":"Starbucks","Name":"42nd & Second","City":"New York","Country":"US","Latitude":40.749768,"Longitude":-73.973188},{"Brand":"Starbucks","Name":"41st & 3rd","City":"New York","Country":"US","Latitude":40.750195,"Longitude":-73.974565},{"Brand":"Starbucks","Name":"57th & Seventh","City":"New York","Country":"US","Latitude":40.764875,"Longitude":-73.97897},{"Brand":"Starbucks","Name":"2 Columbus Ave.","City":"New York","Country":"US","Latitude":40.769313,"Longitude":-73.984905},{"Brand":"Starbucks","Name":"57th btwn 8th & 9th","City":"New York","Country":"US","Latitude":40.767558,"Longitude":-73.983086},{"Brand":"Starbucks","Name":"58th & 8th","City":"New York","Country":"US","Latitude":40.767539,"Longitude":-73.983111},{"Brand":"Starbucks","Name":"120 W. 56th","City":"New York","Country":"US","Latitude":40.76402,"Longitude":-73.978898},{"Brand":"Starbucks","Name":"Limited Brands-NYC","City":"New York","Country":"US","Latitude":40.765221,"Longitude":-73.982023},{"Brand":"Starbucks","Name":"West 55th & 7th","City":"New York","Country":"US","Latitude":40.764304,"Longitude":-73.980913},{"Brand":"Starbucks","Name":"1345 Ave. of the Americas Acquisiti","City":"New York","Country":"US","Latitude":40.76201,"Longitude":-73.978533},{"Brand":"Starbucks","Name":"53rd & Sixth","City":"New York","Country":"US","Latitude":40.761933,"Longitude":-73.978633},{"Brand":"Starbucks","Name":"Hilton New York Marketplace","City":"New York","Country":"US","Latitude":40.762304,"Longitude":-73.979184},{"Brand":"Starbucks","Name":"51st between Park & Madison","City":"New York","Country":"US","Latitude":40.758144,"Longitude":-73.974267},{"Brand":"Starbucks","Name":"54th & Broadway","City":"New York","Country":"US","Latitude":40.764046,"Longitude":-73.98223},{"Brand":"Starbucks","Name":"1290 Sixth Ave (Ave of Americas)","City":"New York","Country":"US","Latitude":40.760875,"Longitude":-73.979729},{"Brand":"Starbucks","Name":"Waldorf-Astoria","City":"New York","Country":"US","Latitude":40.75656,"Longitude":-73.97405},{"Brand":"Starbucks","Name":"1290 Ave. of the Americas","City":"New York","Country":"US","Latitude":40.760757,"Longitude":-73.979621},{"Brand":"Starbucks","Name":"52nd & Seventh","City":"New York","Country":"US","Latitude":40.76183,"Longitude":-73.981144},{"Brand":"Starbucks","Name":"48th & Park","City":"New York","Country":"US","Latitude":40.756423,"Longitude":-73.975073},{"Brand":"Starbucks","Name":"49th & Madison","City":"New York","Country":"US","Latitude":40.756963,"Longitude":-73.975901},{"Brand":"Starbucks","Name":"Rockefeller Center Concourse","City":"New York","Country":"US","Latitude":40.758759,"Longitude":-73.978691},{"Brand":"Starbucks","Name":"52nd Street and 8th Ave","City":"New York","Country":"US","Latitude":40.763701,"Longitude":-73.985292},{"Brand":"Starbucks","Name":"1656 Broadway","City":"New York","Country":"US","Latitude":40.762092,"Longitude":-73.983345},{"Brand":"Starbucks","Name":"Rockefeller Center Subway","City":"New York","Country":"US","Latitude":40.758852,"Longitude":-73.979169},{"Brand":"Starbucks","Name":"ARAMARK @ JP Morgan Chase New York","City":"New York","Country":"US","Latitude":40.75582,"Longitude":-73.975683},{"Brand":"Starbucks","Name":"49th & 7th","City":"New York","Country":"US","Latitude":40.760755,"Longitude":-73.983693},{"Brand":"Starbucks","Name":"575 Fifth Avenue (Relocation)","City":"New York","Country":"US","Latitude":40.756428,"Longitude":-73.97853},{"Brand":"Starbucks","Name":"45th & Park Avenue","City":"New York","Country":"US","Latitude":40.754532,"Longitude":-73.976097},{"Brand":"Starbucks","Name":"Worldwide Plaza II","City":"New York","Country":"US","Latitude":40.762228,"Longitude":-73.986567},{"Brand":"Starbucks","Name":"450 Lexington Ave.","City":"New York","Country":"US","Latitude":40.753176,"Longitude":-73.974975},{"Brand":"Starbucks","Name":"575 Fifth Avenue","City":"New York","Country":"US","Latitude":40.756131,"Longitude":-73.978922},{"Brand":"Starbucks","Name":"49th & 8th-World Wide Plaza","City":"New York","Country":"US","Latitude":40.762176,"Longitude":-73.987472},{"Brand":"Starbucks","Name":"NHL store @ 47th & 6th","City":"New York","Country":"US","Latitude":40.758048,"Longitude":-73.982192},{"Brand":"Starbucks","Name":"1585 Broadway (47th)","City":"New York","Country":"US","Latitude":40.759686,"Longitude":-73.985235},{"Brand":"Starbucks","Name":"545 Fifth Ave.","City":"New York","Country":"US","Latitude":40.755168,"Longitude":-73.979409},{"Brand":"Starbucks","Name":"47th & Eighth","City":"New York","Country":"US","Latitude":40.760626,"Longitude":-73.987171},{"Brand":"Starbucks","Name":"Grand Central Station","City":"New York","Country":"US","Latitude":40.753291,"Longitude":-73.977635},{"Brand":"Starbucks","Name":"45th St. & Sixth Ave.","City":"New York","Country":"US","Latitude":40.756649,"Longitude":-73.982141},{"Brand":"Starbucks","Name":"Madison & 44th","City":"New York","Country":"US","Latitude":40.753944,"Longitude":-73.978759},{"Brand":"Starbucks","Name":"335 Madison Ave.","City":"New York","Country":"US","Latitude":40.753887,"Longitude":-73.978719},{"Brand":"Starbucks","Name":"150 E. 42nd Street","City":"New York","Country":"US","Latitude":40.751238,"Longitude":-73.975608},{"Brand":"Starbucks","Name":"Grand Central Station 2","City":"New York","Country":"US","Latitude":40.752347,"Longitude":-73.977456},{"Brand":"Starbucks","Name":"47th & 9th","City":"New York","Country":"US","Latitude":40.761614,"Longitude":-73.990046},{"Brand":"Starbucks","Name":"330 Madison","City":"New York","Country":"US","Latitude":40.753335,"Longitude":-73.979405},{"Brand":"Starbucks","Name":"Marriott Marquis-Lobby","City":"New York","Country":"US","Latitude":40.757993,"Longitude":-73.985633},{"Brand":"Starbucks","Name":"42nd & Park","City":"New York","Country":"US","Latitude":40.751779,"Longitude":-73.977735},{"Brand":"Starbucks","Name":"45th & Broadway","City":"New York","Country":"US","Latitude":40.757662,"Longitude":-73.985721},{"Brand":"Starbucks","Name":"40th & Lexington (360 Lex)","City":"New York","Country":"US","Latitude":40.750332,"Longitude":-73.977043},{"Brand":"Starbucks","Name":"43rd & Sixth","City":"New York","Country":"US","Latitude":40.755352,"Longitude":-73.983972},{"Brand":"Starbucks","Name":"41st & Madison","City":"New York","Country":"US","Latitude":40.751957,"Longitude":-73.979722},{"Brand":"Starbucks","Name":"West 43rd and Broadway","City":"New York","Country":"US","Latitude":40.756643,"Longitude":-73.985904},{"Brand":"Starbucks","Name":"42nd & 6th","City":"New York","Country":"US","Latitude":40.754883,"Longitude":-73.984074},{"Brand":"Starbucks","Name":"43rd & 8th","City":"New York","Country":"US","Latitude":40.758001,"Longitude":-73.988994},{"Brand":"Starbucks","Name":"39th & Park","City":"New York","Country":"US","Latitude":40.750628,"Longitude":-73.979265},{"Brand":"Starbucks","Name":"42nd & Eighth","City":"New York","Country":"US","Latitude":40.757171,"Longitude":-73.98905},{"Brand":"Starbucks","Name":"41st and Broadway","City":"New York","Country":"US","Latitude":40.755043,"Longitude":-73.986415},{"Brand":"Starbucks","Name":"43rd & Ninth","City":"New York","Country":"US","Latitude":40.758934,"Longitude":-73.992514},{"Brand":"Starbucks","Name":"525 Seventh Avenue (New World)","City":"New York","Country":"US","Latitude":40.753647,"Longitude":-73.988434},{"Brand":"Starbucks","Name":"39th and 8th","City":"New York","Country":"US","Latitude":40.755325,"Longitude":-73.990906},{"Brand":"Starbucks","Name":"36th and Madison","City":"New York","Country":"US","Latitude":40.748918,"Longitude":-73.982682},{"Brand":"Starbucks","Name":"1372 Broadway","City":"New York","Country":"US","Latitude":40.751985,"Longitude":-73.986909},{"Brand":"Starbucks","Name":"35th & 5th","City":"New York","Country":"US","Latitude":40.749101,"Longitude":-73.983799},{"Brand":"Starbucks","Name":"East 34th and Park","City":"New York","Country":"US","Latitude":40.747051,"Longitude":-73.981236},{"Brand":"Starbucks","Name":"36th St & Sixth Avenue","City":"New York","Country":"US","Latitude":40.751005,"Longitude":-73.986913},{"Brand":"Starbucks","Name":"32nd @ 2nd Ave.","City":"New York","Country":"US","Latitude":40.743679,"Longitude":-73.976866},{"Brand":"Starbucks","Name":"Empire State Building","City":"New York","Country":"US","Latitude":40.74866,"Longitude":-73.985614},{"Brand":"Starbucks","Name":"35th & 7th","City":"New York","Country":"US","Latitude":40.751842,"Longitude":-73.990214},{"Brand":"Starbucks","Name":"Macy's 6th Floor - Herald Square","City":"New York","Country":"US","Latitude":40.751103,"Longitude":-73.989518},{"Brand":"Starbucks","Name":"Macy's 5th Floor - Herald Square","City":"New York","Country":"US","Latitude":40.751148,"Longitude":-73.990061},{"Brand":"Starbucks","Name":"Macy's 35th Street Balcony","City":"New York","Country":"US","Latitude":40.750942,"Longitude":-73.989757},{"Brand":"Starbucks","Name":"450 7th Avenue","City":"New York","Country":"US","Latitude":40.751357,"Longitude":-73.990435},{"Brand":"Starbucks","Name":"Herald Square- Macy's","City":"New York","Country":"US","Latitude":40.751014,"Longitude":-73.990248},{"Brand":"Starbucks","Name":"35th and 8th","City":"New York","Country":"US","Latitude":40.752633,"Longitude":-73.992905},{"Brand":"Starbucks","Name":"NY Plaza","City":"New York","Country":"US","Latitude":40.702461,"Longitude":-74.012266},{"Brand":"Starbucks","Name":"Battery Park Plaza","City":"New York","Country":"US","Latitude":40.704563,"Longitude":-74.013216},{"Brand":"Starbucks","Name":"2 Broadway","City":"New York","Country":"US","Latitude":40.704349,"Longitude":-74.013016},{"Brand":"Starbucks","Name":"55 Broad Street","City":"New York","Country":"US","Latitude":40.705292,"Longitude":-74.011054},{"Brand":"Starbucks","Name":"Marriott Financial Center","City":"New York","Country":"US","Latitude":40.709646,"Longitude":-74.014614},{"Brand":"Starbucks","Name":"Pearl & Hanover","City":"New York","Country":"US","Latitude":40.704552,"Longitude":-74.008893},{"Brand":"Starbucks","Name":"NYSE","City":"New York","Country":"US","Latitude":40.707488,"Longitude":-74.011244},{"Brand":"Starbucks","Name":"Broadway & Thames","City":"New York","Country":"US","Latitude":40.708234,"Longitude":-74.011091},{"Brand":"Starbucks","Name":"250 Vesey Street, World Financial","City":"New York","Country":"US","Latitude":40.714026,"Longitude":-74.015838},{"Brand":"Starbucks","Name":"165 Broadway - 1 Liberty","City":"New York","Country":"US","Latitude":40.709264,"Longitude":-74.010511},{"Brand":"Starbucks","Name":"100 Wall St (New World)","City":"New York","Country":"US","Latitude":40.705209,"Longitude":-74.00678},{"Brand":"Starbucks","Name":"Liberty & Nassau","City":"New York","Country":"US","Latitude":40.708742,"Longitude":-74.009508},{"Brand":"Starbucks","Name":"Pearl & Maiden","City":"New York","Country":"US","Latitude":40.706494,"Longitude":-74.006786},{"Brand":"Starbucks","Name":"195 Broadway","City":"New York","Country":"US","Latitude":40.710912,"Longitude":-74.009844},{"Brand":"Starbucks","Name":"100 Williams Street","City":"New York","Country":"US","Latitude":40.708458,"Longitude":-74.007531},{"Brand":"Starbucks","Name":"Nassau & Fulton","City":"New York","Country":"US","Latitude":40.710352,"Longitude":-74.007946},{"Brand":"Starbucks","Name":"Broadway and Barclay (Woolworth)","City":"New York","Country":"US","Latitude":40.712332,"Longitude":-74.007953},{"Brand":"Starbucks","Name":"Church Street & Murray","City":"New York","Country":"US","Latitude":40.71378,"Longitude":-74.009126},{"Brand":"Starbucks","Name":"38 Park Row","City":"New York","Country":"US","Latitude":40.711837,"Longitude":-74.006844},{"Brand":"Starbucks","Name":"Chambers and West Broadway","City":"New York","Country":"US","Latitude":40.715394,"Longitude":-74.008917},{"Brand":"Starbucks","Name":"Broadway & Reade","City":"New York","Country":"US","Latitude":40.714862,"Longitude":-74.005764},{"Brand":"Starbucks","Name":"W Broadway & Leonard Street","City":"New York","Country":"US","Latitude":40.718045,"Longitude":-74.007222},{"Brand":"Starbucks","Name":"Lafayette & Worth","City":"New York","Country":"US","Latitude":40.715731,"Longitude":-74.003115},{"Brand":"Starbucks","Name":"Broadway & Canal","City":"New York","Country":"US","Latitude":40.718867,"Longitude":-74.0025},{"Brand":"Starbucks","Name":"Canal and Centre","City":"New York","Country":"US","Latitude":40.718329,"Longitude":-74.000014},{"Brand":"Starbucks","Name":"Hudson & King","City":"New York","Country":"US","Latitude":40.72756,"Longitude":-74.007408},{"Brand":"Starbucks","Name":"Spring and Varick","City":"New York","Country":"US","Latitude":40.725772,"Longitude":-74.005579},{"Brand":"Starbucks","Name":"Broadway & Grand","City":"New York","Country":"US","Latitude":40.72126,"Longitude":-74.000453},{"Brand":"Starbucks","Name":"72 Spring","City":"New York","Country":"US","Latitude":40.722536,"Longitude":-73.997959},{"Brand":"Starbucks","Name":"Houston & W. Broadway","City":"New York","Country":"US","Latitude":40.72689,"Longitude":-74.000262},{"Brand":"Starbucks","Name":"Hudson & 10th","City":"New York","Country":"US","Latitude":40.733677,"Longitude":-74.006126},{"Brand":"Starbucks","Name":"Sheridan Square (72 Grove Street)","City":"New York","Country":"US","Latitude":40.73311,"Longitude":-74.002707},{"Brand":"Starbucks","Name":"Allen & Delancey","City":"New York","Country":"US","Latitude":40.719323,"Longitude":-73.989949},{"Brand":"Starbucks","Name":"Broadway and Bond","City":"New York","Country":"US","Latitude":40.727193,"Longitude":-73.99546},{"Brand":"Starbucks","Name":"6th & Waverly (Waverly Place)","City":"New York","Country":"US","Latitude":40.733037,"Longitude":-73.99976},{"Brand":"Starbucks","Name":"New York University","City":"New York","Country":"US","Latitude":40.729655,"Longitude":-73.996179},{"Brand":"Starbucks","Name":"Greenwich Avenue","City":"New York","Country":"US","Latitude":40.73744,"Longitude":-74.001641},{"Brand":"Starbucks","Name":"Jackson Square at Greenwich Ave","City":"New York","Country":"US","Latitude":40.738441,"Longitude":-74.002217},{"Brand":"Starbucks","Name":"15th & Ninth","City":"New York","Country":"US","Latitude":40.741684,"Longitude":-74.004629},{"Brand":"Starbucks","Name":"3rd St & First Avenue","City":"New York","Country":"US","Latitude":40.72472,"Longitude":-73.987569},{"Brand":"Starbucks","Name":"Astor Place","City":"New York","Country":"US","Latitude":40.730006,"Longitude":-73.991658},{"Brand":"Starbucks","Name":"8th & 16th","City":"New York","Country":"US","Latitude":40.741152,"Longitude":-74.001294},{"Brand":"Starbucks","Name":"14th & Sixth","City":"New York","Country":"US","Latitude":40.737022,"Longitude":-73.996494},{"Brand":"Starbucks","Name":"19th & 8th","City":"New York","Country":"US","Latitude":40.742999,"Longitude":-74.000343},{"Brand":"Starbucks","Name":"2nd Ave. & 9th Street","City":"New York","Country":"US","Latitude":40.729358,"Longitude":-73.987372},{"Brand":"Starbucks","Name":"Union Square","City":"New York","Country":"US","Latitude":40.735022,"Longitude":-73.989848},{"Brand":"Starbucks","Name":"West 23rd and 8th","City":"New York","Country":"US","Latitude":40.745103,"Longitude":-73.998743},{"Brand":"Starbucks","Name":"17th and Broadway (41 Union Square","City":"New York","Country":"US","Latitude":40.737035,"Longitude":-73.990558},{"Brand":"Starbucks","Name":"15th & Third","City":"New York","Country":"US","Latitude":40.733749,"Longitude":-73.986598},{"Brand":"Starbucks","Name":"22nd St. & Sixth Ave.","City":"New York","Country":"US","Latitude":40.741844,"Longitude":-73.993237},{"Brand":"Starbucks","Name":"23rd - 24th & 7th","City":"New York","Country":"US","Latitude":40.744315,"Longitude":-73.99525},{"Brand":"Starbucks","Name":"21st & 5th","City":"New York","Country":"US","Latitude":40.740382,"Longitude":-73.991165},{"Brand":"Starbucks","Name":"19th & Park","City":"New York","Country":"US","Latitude":40.73798,"Longitude":-73.988303},{"Brand":"Starbucks","Name":"23rd btwn 5th & 6th","City":"New York","Country":"US","Latitude":40.741661,"Longitude":-73.990313},{"Brand":"Starbucks","Name":"24th & 6th","City":"New York","Country":"US","Latitude":40.743574,"Longitude":-73.992028},{"Brand":"Starbucks","Name":"17th & First (Stuyvesant Town)","City":"New York","Country":"US","Latitude":40.732401,"Longitude":-73.981499},{"Brand":"Starbucks","Name":"Fashion Inst of Technology","City":"New York","Country":"US","Latitude":40.747097,"Longitude":-73.994576},{"Brand":"Starbucks","Name":"23rd & Park","City":"New York","Country":"US","Latitude":40.74016,"Longitude":-73.986971},{"Brand":"Starbucks","Name":"28th & Seventh","City":"New York","Country":"US","Latitude":40.746974,"Longitude":-73.993323},{"Brand":"Starbucks","Name":"33rd & Tenth","City":"New York","Country":"US","Latitude":40.753066,"Longitude":-73.999424},{"Brand":"Starbucks","Name":"Javits Convention Ctr Taxi North","City":"New York","Country":"US","Latitude":40.756782,"Longitude":-74.003423},{"Brand":"Starbucks","Name":"27th & Sixth","City":"New York","Country":"US","Latitude":40.745213,"Longitude":-73.990874},{"Brand":"Starbucks","Name":"26th & Broadway","City":"New York","Country":"US","Latitude":40.743827,"Longitude":-73.989015},{"Brand":"Starbucks","Name":"23rd & 3rd","City":"New York","Country":"US","Latitude":40.738792,"Longitude":-73.983401},{"Brand":"Starbucks","Name":"31st & 7th","City":"New York","Country":"US","Latitude":40.74899,"Longitude":-73.992372},{"Brand":"Starbucks","Name":"261 5th Avenue","City":"New York","Country":"US","Latitude":40.745069,"Longitude":-73.986861},{"Brand":"Starbucks","Name":"31st and Sixth Avenue","City":"New York","Country":"US","Latitude":40.748026,"Longitude":-73.989251},{"Brand":"Starbucks","Name":"1 Penn Plaza","City":"New York","Country":"US","Latitude":40.752586,"Longitude":-73.992834},{"Brand":"Starbucks","Name":"Penn Station LIRR","City":"New York","Country":"US","Latitude":40.752587,"Longitude":-73.992835},{"Brand":"Starbucks","Name":"Penn Station LIRR #2","City":"New York","Country":"US","Latitude":40.752587,"Longitude":-73.992835},{"Brand":"Starbucks","Name":"29th & Park-Park Ave. South","City":"New York","Country":"US","Latitude":40.74426,"Longitude":-73.983749},{"Brand":"Starbucks","Name":"33rd Street and 5th Avenue (Old Ban","City":"New York","Country":"US","Latitude":40.747763,"Longitude":-73.985306},{"Brand":"Starbucks","Name":"Safeway-Mountain View #1108","City":"Mountain View","Country":"US","Latitude":37.372393,"Longitude":-122.088318},{"Brand":"Starbucks","Name":"Miramonte & Cuesta - Mtn. View","City":"Mountain View","Country":"US","Latitude":37.373152,"Longitude":-122.087828},{"Brand":"Starbucks","Name":"Castro @ High School - Mtn. View","City":"Mountain View","Country":"US","Latitude":37.387506,"Longitude":-122.083058},{"Brand":"Starbucks","Name":"Mountain View","City":"Mountain View","Country":"US","Latitude":37.390821,"Longitude":-122.094722},{"Brand":"Starbucks","Name":"Safeway - Mountain View #705","City":"Mountain View","Country":"US","Latitude":37.4030262335,"Longitude":-122.0790439986},{"Brand":"Starbucks","Name":"Shoreline & Pear - Mnt. View","City":"Mountain View","Country":"US","Latitude":37.415752,"Longitude":-122.077698},{"Brand":"Starbucks","Name":"SFO T3 Baggage Claim (Retail)","City":"San Francisco","Country":"US","Latitude":37.62261,"Longitude":-122.37804},{"Brand":"Starbucks","Name":"SFO Terminal 2 Arrivals","City":"San Francisco","Country":"US","Latitude":37.62261,"Longitude":-122.37804},{"Brand":"Starbucks","Name":"Charleston & Independence-Mnt. View","City":"Mountain View","Country":"US","Latitude":37.421835,"Longitude":-122.096395},{"Brand":"Starbucks","Name":"Rengstorff & Middlefield - Mountain","City":"Mountain View","Country":"US","Latitude":37.411436,"Longitude":-122.094241},{"Brand":"Starbucks","Name":"Safeway - San Francisco #667","City":"San Francisco","Country":"US","Latitude":37.74374,"Longitude":-122.438769},{"Brand":"Starbucks","Name":"Stonestown Galleria","City":"San Francisco","Country":"US","Latitude":37.727988,"Longitude":-122.476616},{"Brand":"Starbucks","Name":"24th & Noe","City":"San Francisco","Country":"US","Latitude":37.75134,"Longitude":-122.431704},{"Brand":"Starbucks","Name":"675 Portola - Miraloma","City":"San Francisco","Country":"US","Latitude":37.744509,"Longitude":-122.452714},{"Brand":"Starbucks","Name":"Owens & 16th - San Francisco","City":"San Francisco","Country":"US","Latitude":37.767065,"Longitude":-122.39366},{"Brand":"Starbucks","Name":"100 West Portal\/Vicente","City":"San Francisco","Country":"US","Latitude":37.739684,"Longitude":-122.467323},{"Brand":"Starbucks","Name":"Mariposa & Bryant","City":"San Francisco","Country":"US","Latitude":37.762911,"Longitude":-122.410427},{"Brand":"Starbucks","Name":"Kansas & 16th St. - San Francisco","City":"San Francisco","Country":"US","Latitude":37.765794,"Longitude":-122.403234},{"Brand":"Starbucks","Name":"Safeway-San Francisco #1490","City":"San Francisco","Country":"US","Latitude":37.766586,"Longitude":-122.409411},{"Brand":"Starbucks","Name":"8th & Townsend - San Francisco","City":"San Francisco","Country":"US","Latitude":37.770193,"Longitude":-122.403462},{"Brand":"Starbucks","Name":"4094 18th St.","City":"San Francisco","Country":"US","Latitude":37.760993,"Longitude":-122.434749},{"Brand":"Starbucks","Name":"Safeway-San Francisco #2606","City":"San Francisco","Country":"US","Latitude":37.776789,"Longitude":-122.393907},{"Brand":"Starbucks","Name":"King & 4th Street - San Francisco","City":"San Francisco","Country":"US","Latitude":37.777114,"Longitude":-122.393598},{"Brand":"Starbucks","Name":"Church & Market - S.F.","City":"San Francisco","Country":"US","Latitude":37.768999,"Longitude":-122.427673},{"Brand":"Starbucks","Name":"Safeway-San Franscisco #1507","City":"San Francisco","Country":"US","Latitude":37.769007,"Longitude":-122.427668},{"Brand":"Starbucks","Name":"4th & Brannan - WFB","City":"San Francisco","Country":"US","Latitude":37.778599,"Longitude":-122.396409},{"Brand":"Starbucks","Name":"9th & Howard","City":"San Francisco","Country":"US","Latitude":37.775465,"Longitude":-122.413439},{"Brand":"Starbucks","Name":"Market & Fell - San Francisco","City":"San Francisco","Country":"US","Latitude":37.77663,"Longitude":-122.41741},{"Brand":"Starbucks","Name":"1231 Market Street","City":"San Francisco","Country":"US","Latitude":37.777957,"Longitude":-122.41494},{"Brand":"Starbucks","Name":"350 Parnassus","City":"San Francisco","Country":"US","Latitude":37.764211,"Longitude":-122.456249},{"Brand":"Starbucks","Name":"SF Courtyard Marriott Lobby","City":"San Francisco","Country":"US","Latitude":37.785789,"Longitude":-122.396738},{"Brand":"Starbucks","Name":"120 4th Street","City":"San Francisco","Country":"US","Latitude":37.784064,"Longitude":-122.40398},{"Brand":"Starbucks","Name":"865 Market - SF Centre","City":"San Francisco","Country":"US","Latitude":37.783947,"Longitude":-122.407158},{"Brand":"Starbucks","Name":"Marriott SF Lobby","City":"San Francisco","Country":"US","Latitude":37.785141,"Longitude":-122.404703},{"Brand":"Starbucks","Name":"Irving Street","City":"San Francisco","Country":"US","Latitude":37.764167,"Longitude":-122.466005},{"Brand":"Starbucks","Name":"4th & Market - S.F.","City":"San Francisco","Country":"US","Latitude":37.785858,"Longitude":-122.405765},{"Brand":"Starbucks","Name":"74 New Montgomery","City":"San Francisco","Country":"US","Latitude":37.787458,"Longitude":-122.40131},{"Brand":"Starbucks","Name":"Safeway - Noriega #985","City":"San Francisco","Country":"US","Latitude":37.75407,"Longitude":-122.488791},{"Brand":"Starbucks","Name":"Third & Market - San Francisco","City":"San Francisco","Country":"US","Latitude":37.787362,"Longitude":-122.403182},{"Brand":"Starbucks","Name":"Cyril Magnin at O`Farrell - Nikko","City":"San Francisco","Country":"US","Latitude":37.786082,"Longitude":-122.409115},{"Brand":"Starbucks","Name":"199 Fremont @ Howard - SF","City":"San Francisco","Country":"US","Latitude":37.789909,"Longitude":-122.394571},{"Brand":"Starbucks","Name":"201 Powell Street - San Francisco","City":"San Francisco","Country":"US","Latitude":37.786167,"Longitude":-122.409156},{"Brand":"Starbucks","Name":"3rd & Howard","City":"San Francisco","Country":"US","Latitude":37.786564,"Longitude":-122.40814},{"Brand":"Starbucks","Name":"Macy's-Union Square 4th Floor","City":"San Francisco","Country":"US","Latitude":37.786551,"Longitude":-122.40824},{"Brand":"Starbucks","Name":"36 Second Street","City":"San Francisco","Country":"US","Latitude":37.788587,"Longitude":-122.400958},{"Brand":"Starbucks","Name":"Hilton @ San Francisco","City":"San Francisco","Country":"US","Latitude":37.78622,"Longitude":-122.410623},{"Brand":"Starbucks","Name":"Spear Street","City":"San Francisco","Country":"US","Latitude":37.791166,"Longitude":-122.391842},{"Brand":"Starbucks","Name":"Geary & Taylor - San Francisco","City":"San Francisco","Country":"US","Latitude":37.786916,"Longitude":-122.410827},{"Brand":"Starbucks","Name":"340 Mission","City":"San Francisco","Country":"US","Latitude":37.79084,"Longitude":-122.396468},{"Brand":"Starbucks","Name":"44 Montgomery @ Market St.","City":"San Francisco","Country":"US","Latitude":37.789778,"Longitude":-122.401736},{"Brand":"Starbucks","Name":"Masonic @ Fulton - S.F.","City":"San Francisco","Country":"US","Latitude":37.77573,"Longitude":-122.446276},{"Brand":"Starbucks","Name":"455 Market","City":"San Francisco","Country":"US","Latitude":37.790947,"Longitude":-122.398634},{"Brand":"Starbucks","Name":"123 Mission Street","City":"San Francisco","Country":"US","Latitude":37.791973,"Longitude":-122.394513},{"Brand":"Starbucks","Name":"333 Market St.","City":"San Francisco","Country":"US","Latitude":37.791747,"Longitude":-122.397528},{"Brand":"Starbucks","Name":"390 Stockton @ Sutter (Union Sq)","City":"San Francisco","Country":"US","Latitude":37.789359,"Longitude":-122.406823},{"Brand":"Starbucks","Name":"Powell & Sutter - San Francisco","City":"San Francisco","Country":"US","Latitude":37.789077,"Longitude":-122.408428},{"Brand":"Starbucks","Name":"398 Market St.","City":"San Francisco","Country":"US","Latitude":37.791776,"Longitude":-122.398263},{"Brand":"Starbucks","Name":"Grant & Bush - San Francisco","City":"San Francisco","Country":"US","Latitude":37.790022,"Longitude":-122.405629},{"Brand":"Starbucks","Name":"1800 Irving Street","City":"San Francisco","Country":"US","Latitude":37.763719,"Longitude":-122.477464},{"Brand":"Starbucks","Name":"Kearny @ Bush","City":"San Francisco","Country":"US","Latitude":37.790683,"Longitude":-122.403889},{"Brand":"Starbucks","Name":"Safeway - San Francisco #995","City":"San Francisco","Country":"US","Latitude":37.782999,"Longitude":-122.431552},{"Brand":"Starbucks","Name":"One Market Plaza","City":"San Francisco","Country":"US","Latitude":37.79413,"Longitude":-122.394795},{"Brand":"Starbucks","Name":"50 California St.","City":"San Francisco","Country":"US","Latitude":37.79357,"Longitude":-122.397275},{"Brand":"Starbucks","Name":"California & Battery - SF","City":"San Francisco","Country":"US","Latitude":37.793062,"Longitude":-122.39976},{"Brand":"Starbucks","Name":"Fillmore & O'Farrell","City":"San Francisco","Country":"US","Latitude":37.783421,"Longitude":-122.432888},{"Brand":"Starbucks","Name":"27 Drumm Street","City":"San Francisco","Country":"US","Latitude":37.794137,"Longitude":-122.396856},{"Brand":"Starbucks","Name":"555 California St.","City":"San Francisco","Country":"US","Latitude":37.792692,"Longitude":-122.40368},{"Brand":"Starbucks","Name":"Sansome","City":"San Francisco","Country":"US","Latitude":37.793628,"Longitude":-122.401388},{"Brand":"Starbucks","Name":"Bush & Van Ness - S.F.","City":"San Francisco","Country":"US","Latitude":37.788567,"Longitude":-122.422218},{"Brand":"Starbucks","Name":"425 Battery - San Francisco","City":"San Francisco","Country":"US","Latitude":37.795099,"Longitude":-122.400512},{"Brand":"Starbucks","Name":"565 Clay St.","City":"San Francisco","Country":"US","Latitude":37.794606,"Longitude":-122.402695},{"Brand":"Starbucks","Name":"Pier 1 - The Embarcadero","City":"San Francisco","Country":"US","Latitude":37.796628,"Longitude":-122.395558},{"Brand":"Starbucks","Name":"505 Sansome Street","City":"San Francisco","Country":"US","Latitude":37.795153,"Longitude":-122.401741},{"Brand":"Starbucks","Name":"Van Ness & California - WFB","City":"San Francisco","Country":"US","Latitude":37.790268,"Longitude":-122.422062},{"Brand":"Starbucks","Name":"99 Jackson","City":"San Francisco","Country":"US","Latitude":37.797715,"Longitude":-122.396966},{"Brand":"Starbucks","Name":"1750 Divisadero Street","City":"San Francisco","Country":"US","Latitude":37.78598,"Longitude":-122.439827},{"Brand":"Starbucks","Name":"701 Battery","City":"San Francisco","Country":"US","Latitude":37.797711,"Longitude":-122.401101},{"Brand":"Starbucks","Name":"Grand Central Market - Mollie Stone","City":"San Francisco","Country":"US","Latitude":37.788469,"Longitude":-122.434812},{"Brand":"Starbucks","Name":"Fillmore","City":"San Francisco","Country":"US","Latitude":37.790232,"Longitude":-122.433976},{"Brand":"Starbucks","Name":"Polk Street","City":"San Francisco","Country":"US","Latitude":37.796768,"Longitude":-122.422095},{"Brand":"Starbucks","Name":"Levi's Plaza @ Sansome","City":"San Francisco","Country":"US","Latitude":37.802873,"Longitude":-122.402068},{"Brand":"Starbucks","Name":"Union Street","City":"San Francisco","Country":"US","Latitude":37.797642,"Longitude":-122.430404},{"Brand":"Starbucks","Name":"5455  Geary Blvd. - WFB","City":"San Francisco","Country":"US","Latitude":37.780175,"Longitude":-122.478147},{"Brand":"Starbucks","Name":"Bay & Taylor - San Francisco","City":"San Francisco","Country":"US","Latitude":37.805279,"Longitude":-122.414945},{"Brand":"Starbucks","Name":"Jones @ Jefferson - San Francisco","City":"San Francisco","Country":"US","Latitude":37.807285,"Longitude":-122.41641},{"Brand":"Starbucks","Name":"Chestnut","City":"San Francisco","Country":"US","Latitude":37.800645,"Longitude":-122.43854},{"Brand":"Starbucks","Name":"Beach & Hyde - San Francisco","City":"San Francisco","Country":"US","Latitude":37.806835,"Longitude":-122.4204},{"Brand":"Starbucks","Name":"3727 Buchanan - San Francisco","City":"San Francisco","Country":"US","Latitude":37.804496,"Longitude":-122.433759},{"Brand":"Starbucks","Name":"Presidio  & Letterman - SF","City":"San Francisco","Country":"US","Latitude":37.799245,"Longitude":-122.449533}]