[{"Brand":"Starbucks","Store Name":"Shoreline & Pear","Street Address":"1380 Pear Avenue, Blossom Valley Shopping Center","City":"Mountain View","State\/Province":"CA","Country":"US","location":{"type":"Point","coordinates":[-122.08,37.42]}},{"Brand":"Starbucks","Store Name":"Miramonte & Cuesta - Mtn. View","Street Address":"809A Cuesta Blvd","City":"Mountain View","State\/Province":"CA","Country":"US","location":{"type":"Point","coordinates":[-122.09,37.37]}},{"Brand":"Starbucks","Store Name":"Safeway-Mountain View #1108","Street Address":"1750 Miramonte Ave, Park Place South","City":"Mountain View","State\/Province":"CA","Country":"US","location":{"type":"Point","coordinates":[-122.09,37.37]}},{"Brand":"Starbucks","Store Name":"Castro & High School","Street Address":"750 Castro St","City":"Mountain View","State\/Province":"CA","Country":"US","location":{"type":"Point","coordinates":[-122.08,37.39]}},{"Brand":"Starbucks","Store Name":"Rengstorff & Middlefield","Street Address":"580 N Rengstorff Avenue","City":"Mountain View","State\/Province":"CA","Country":"US","location":{"type":"Point","coordinates":[-122.09,37.41]}},{"Brand":"Starbucks","Store Name":"Safeway-Mountain View #2948","Street Address":"645 San Antonio Rd.","City":"Mountain View","State\/Province":"CA","Country":"US","location":{"type":"Point","coordinates":[-122.11,37.4]}},{"Brand":"Starbucks","Store Name":"San Antonio & El Camino","Street Address":"565 San Antonio Road, 28","City":"Mountain View","State\/Province":"CA","Country":"US","location":{"type":"Point","coordinates":[-122.11,37.4]}},{"Brand":"Starbucks","Store Name":"Charleston & Independence","Street Address":"2410 Charleston Avenue","City":"Mountain View","State\/Province":"CA","Country":"US","location":{"type":"Point","coordinates":[-122.1,37.42]}},{"Brand":"Starbucks","Store Name":"Safeway - Mountain View #705","Street Address":"570 Shoreline Blvd","City":"Mountain View","State\/Province":"CA","Country":"US","location":{"type":"Point","coordinates":[-122.09,37.38]}},{"Brand":"Starbucks","Store Name":"El Camino & Grant","Street Address":"175 East El Camino Real","City":"Mountain View","State\/Province":"CA","Country":"US","location":{"type":"Point","coordinates":[-122.07,37.38]}},{"Brand":"Starbucks","Store Name":"El Camino & El Monte","Street Address":"1037-C El Monte Ave","City":"Mountain View","State\/Province":"CA","Country":"US","location":{"type":"Point","coordinates":[-122.09,37.39]}},{"Brand":"Teavana","Store Name":"Teavana - San Francisco Centre","Street Address":"865 Market St., #324","City":"San Francisco","State\/Province":"CA","Country":"US","location":{"type":"Point","coordinates":[-122.41,37.78]}},{"Brand":"Starbucks","Store Name":"Church & Market - S.F.","Street Address":"2018 Market Street","City":"San Francisco","State\/Province":"CA","Country":"US","location":{"type":"Point","coordinates":[-122.43,37.77]}},{"Brand":"Starbucks","Store Name":"120 4th Street","Street Address":"120 4th Street","City":"San Francisco","State\/Province":"CA","Country":"US","location":{"type":"Point","coordinates":[-122.4,37.78]}},{"Brand":"Starbucks","Store Name":"Safeway - San Francisco #995","Street Address":"1335 Webster, Stonestown Galleria","City":"San Francisco","State\/Province":"CA","Country":"US","location":{"type":"Point","coordinates":[-122.43,37.78]}},{"Brand":"Teavana","Store Name":"Teavana - Stonestown Galleria","Street Address":"3251  20th Ave., #216","City":"San Francisco","State\/Province":"CA","Country":"US","location":{"type":"Point","coordinates":[-122.48,37.73]}},{"Brand":"Starbucks","Store Name":"Safeway - Noriega #985","Street Address":"2350 Noriega Street","City":"San Francisco","State\/Province":"CA","Country":"US","location":{"type":"Point","coordinates":[-122.49,37.75]}},{"Brand":"Starbucks","Store Name":"Safeway - San Francisco #667","Street Address":"5290 Diamond Heights Blvd","City":"San Francisco","State\/Province":"CA","Country":"US","location":{"type":"Point","coordinates":[-122.44,37.74]}},{"Brand":"Starbucks","Store Name":"5455 Geary Blvd. - WFB","Street Address":"5455 Geary Blvd","City":"San Francisco","State\/Province":"CA","Country":"US","location":{"type":"Point","coordinates":[-122.48,37.78]}},{"Brand":"Starbucks","Store Name":"Safeway-San Francisco #2606","Street Address":"298 King Street","City":"San Francisco","State\/Province":"CA","Country":"US","location":{"type":"Point","coordinates":[-122.39,37.78]}},{"Brand":"Starbucks","Store Name":"California & Battery","Street Address":"295 California Street","City":"San Francisco","State\/Province":"CA","Country":"US","location":{"type":"Point","coordinates":[-122.4,37.79]}},{"Brand":"Starbucks","Store Name":"Union Street","Street Address":"1899 Union Street","City":"San Francisco","State\/Province":"CA","Country":"US","location":{"type":"Point","coordinates":[-122.43,37.8]}},{"Brand":"Starbucks","Store Name":"Spear Street","Street Address":"201 Spear Street, Suite 100","City":"San Francisco","State\/Province":"CA","Country":"US","location":{"type":"Point","coordinates":[-122.39,37.79]}},{"Brand":"Starbucks","Store Name":"100 West Portal\/Vicente","Street Address":"100 West Portal","City":"San Francisco","State\/Province":"CA","Country":"US","location":{"type":"Point","coordinates":[-122.47,37.74]}},{"Brand":"Starbucks","Store Name":"565 Clay St.","Street Address":"565 Clay Street","City":"San Francisco","State\/Province":"CA","Country":"US","location":{"type":"Point","coordinates":[-122.4,37.79]}},{"Brand":"Starbucks","Store Name":"Mariposa & Bryant","Street Address":"2727 Mariposa St","City":"San Francisco","State\/Province":"CA","Country":"US","location":{"type":"Point","coordinates":[-122.41,37.76]}},{"Brand":"Starbucks","Store Name":"455 Market","Street Address":"455 Market Street, Suite 100","City":"San Francisco","State\/Province":"CA","Country":"US","location":{"type":"Point","coordinates":[-122.4,37.79]}},{"Brand":"Starbucks","Store Name":"Van Ness & California - WFB","Street Address":"1560 Van Ness Avenue","City":"San Francisco","State\/Province":"CA","Country":"US","location":{"type":"Point","coordinates":[-122.42,37.79]}},{"Brand":"Starbucks","Store Name":"Montgomery & Sutter","Street Address":"100 Montgomery, Levi's Plaza","City":"San Francisco","State\/Province":"CA","Country":"US","location":{"type":"Point","coordinates":[-122.4,37.79]}},{"Brand":"Starbucks","Store Name":"Levi's Plaza at Sansome","Street Address":"1255 Battery Street, Suite 600","City":"San Francisco","State\/Province":"CA","Country":"US","location":{"type":"Point","coordinates":[-122.4,37.8]}},{"Brand":"Starbucks","Store Name":"27 Drumm Street","Street Address":"27 Drumm Street","City":"San Francisco","State\/Province":"CA","Country":"US","location":{"type":"Point","coordinates":[-122.4,37.79]}},{"Brand":"Starbucks","Store Name":"50 California St.","Street Address":"52 California Street","City":"San Francisco","State\/Province":"CA","Country":"US","location":{"type":"Point","coordinates":[-122.4,37.79]}},{"Brand":"Starbucks","Store Name":"Kearny at Bush","Street Address":"264 Kearny Street","City":"San Francisco","State\/Province":"CA","Country":"US","location":{"type":"Point","coordinates":[-122.4,37.79]}},{"Brand":"Starbucks","Store Name":"4094 18th St.","Street Address":"4094 18th Street","City":"San Francisco","State\/Province":"CA","Country":"US","location":{"type":"Point","coordinates":[-122.43,37.76]}},{"Brand":"Starbucks","Store Name":"1750 Divisadero Street","Street Address":"1750 Divisadero Street","City":"San Francisco","State\/Province":"CA","Country":"US","location":{"type":"Point","coordinates":[-122.44,37.79]}},{"Brand":"Starbucks","Store Name":"9th & Irving","Street Address":"744 Irving Street","City":"San Francisco","State\/Province":"CA","Country":"US","location":{"type":"Point","coordinates":[-122.47,37.76]}},{"Brand":"Starbucks","Store Name":"SF Courtyard Marriott Lobby","Street Address":"299 Second St","City":"San Francisco","State\/Province":"CA","Country":"US","location":{"type":"Point","coordinates":[-122.4,37.79]}},{"Brand":"Starbucks","Store Name":"701 Battery","Street Address":"701 Battery Street, Parnassus Heights Medical Center","City":"San Francisco","State\/Province":"CA","Country":"US","location":{"type":"Point","coordinates":[-122.4,37.8]}},{"Brand":"Starbucks","Store Name":"350 Parnassus","Street Address":"350 Parnassus Street, Fremont Building","City":"San Francisco","State\/Province":"CA","Country":"US","location":{"type":"Point","coordinates":[-122.46,37.76]}},{"Brand":"Starbucks","Store Name":"Howard & Beale","Street Address":"199 Fremont Street, Unit 110","City":"San Francisco","State\/Province":"CA","Country":"US","location":{"type":"Point","coordinates":[-122.39,37.79]}},{"Brand":"Starbucks","Store Name":"SFO T3 Baggage Claim (Retail)","Street Address":"SFO, Terminal 3 United Gate73","City":"San Francisco","State\/Province":"CA","Country":"US","location":{"type":"Point","coordinates":[-122.39,37.62]}},{"Brand":"Starbucks","Store Name":"Target Express - Bush Street","Street Address":"225 Bush St","City":"San Francisco","State\/Province":"CA","Country":"US","location":{"type":"Point","coordinates":[-122.4,37.79]}},{"Brand":"Starbucks","Store Name":"8th & Townsend","Street Address":"689 Townsend","City":"San Francisco","State\/Province":"CA","Country":"US","location":{"type":"Point","coordinates":[-122.4,37.77]}},{"Brand":"Starbucks","Store Name":"First & Mission","Street Address":"100 First Street","City":"San Francisco","State\/Province":"CA","Country":"US","location":{"type":"Point","coordinates":[-122.4,37.79]}},{"Brand":"Starbucks","Store Name":"Safeway-San Francisco #1490","Street Address":"2300 16th St. Unit 203","City":"San Francisco","State\/Province":"CA","Country":"US","location":{"type":"Point","coordinates":[-122.41,37.77]}},{"Brand":"Starbucks","Store Name":"99 Jackson","Street Address":"99 Jackson Street","City":"San Francisco","State\/Province":"CA","Country":"US","location":{"type":"Point","coordinates":[-122.4,37.8]}},{"Brand":"Starbucks","Store Name":"201 Powell Street","Street Address":"201 Powell Street","City":"San Francisco","State\/Province":"CA","Country":"US","location":{"type":"Point","coordinates":[-122.41,37.79]}},{"Brand":"Starbucks","Store Name":"36 Second Street","Street Address":"36 2nd Street, Nikko Hotel","City":"San Francisco","State\/Province":"CA","Country":"US","location":{"type":"Point","coordinates":[-122.4,37.79]}},{"Brand":"Starbucks","Store Name":"Cyril Magnin at O`Farrell - Nikko","Street Address":"222 Mason St, Anchorage Shopping Center","City":"San Francisco","State\/Province":"CA","Country":"US","location":{"type":"Point","coordinates":[-122.41,37.79]}},{"Brand":"Starbucks","Store Name":"Jones & Jefferson","Street Address":"2801 Jones S, Ste 111, Stonestown Galleria","City":"San Francisco","State\/Province":"CA","Country":"US","location":{"type":"Point","coordinates":[-122.42,37.81]}},{"Brand":"Starbucks","Store Name":"Stonestown Galleria","Street Address":"3251 20th Ave, Ste 250F","City":"San Francisco","State\/Province":"CA","Country":"US","location":{"type":"Point","coordinates":[-122.48,37.73]}},{"Brand":"Starbucks","Store Name":"4th & Brannan - WFB","Street Address":"490 Brannan Street, Bayview Plaza","City":"San Francisco","State\/Province":"CA","Country":"US","location":{"type":"Point","coordinates":[-122.4,37.78]}},{"Brand":"Starbucks","Store Name":"3rd & Evans","Street Address":"3801 3rd Street, 112","City":"San Francisco","State\/Province":"CA","Country":"US","location":{"type":"Point","coordinates":[-122.39,37.74]}},{"Brand":"Starbucks","Store Name":"Target Express - Ocean Avenue","Street Address":"1830 Ocean Ave.","City":"San Francisco","State\/Province":"CA","Country":"US","location":{"type":"Point","coordinates":[-122.46,37.73]}},{"Brand":"Starbucks","Store Name":"Target SF Central T-2766","Street Address":"789 Mission Street","City":"San Francisco","State\/Province":"CA","Country":"US","location":{"type":"Point","coordinates":[-122.4,37.78]}},{"Brand":"Starbucks","Store Name":"Masonic at Fulton - S.F.","Street Address":"1799 Fulton Street","City":"San Francisco","State\/Province":"CA","Country":"US","location":{"type":"Point","coordinates":[-122.45,37.78]}},{"Brand":"Starbucks","Store Name":"3727 Buchanan","Street Address":"3735 Buchanan","City":"San Francisco","State\/Province":"CA","Country":"US","location":{"type":"Point","coordinates":[-122.43,37.8]}},{"Brand":"Starbucks","Store Name":"44 Montgomery & Market St","Street Address":"44 Montgomery Street","City":"San Francisco","State\/Province":"CA","Country":"US","location":{"type":"Point","coordinates":[-122.4,37.79]}},{"Brand":"Starbucks","Store Name":"1231 Market Street","Street Address":"1231 Market Street","City":"San Francisco","State\/Province":"CA","Country":"US","location":{"type":"Point","coordinates":[-122.42,37.78]}},{"Brand":"Starbucks","Store Name":"Pier 1 - The Embarcadero","Street Address":"Pier 1 - The Embarcadero, Letterman Digital Arts Center","City":"San Francisco","State\/Province":"CA","Country":"US","location":{"type":"Point","coordinates":[-122.39,37.8]}},{"Brand":"Starbucks","Store Name":"Presidio & Letterman","Street Address":"1 Letterman Drive, Building C","City":"San Francisco","State\/Province":"CA","Country":"US","location":{"type":"Point","coordinates":[-122.45,37.8]}},{"Brand":"Starbucks","Store Name":"398 Market St.","Street Address":"398 Market Street","City":"San Francisco","State\/Province":"CA","Country":"US","location":{"type":"Point","coordinates":[-122.4,37.79]}},{"Brand":"Starbucks","Store Name":"Hyde & Beach","Street Address":"685 Beach Street","City":"San Francisco","State\/Province":"CA","Country":"US","location":{"type":"Point","coordinates":[-122.42,37.81]}},{"Brand":"Starbucks","Store Name":"Sansome","Street Address":"343 Sansome","City":"San Francisco","State\/Province":"CA","Country":"US","location":{"type":"Point","coordinates":[-122.4,37.79]}},{"Brand":"Starbucks","Store Name":"SFO Terminal 2 Arrivals","Street Address":"Terminal 2 San Francisco International A","City":"San Francisco","State\/Province":"CA","Country":"US","location":{"type":"Point","coordinates":[-122.38,37.62]}},{"Brand":"Starbucks","Store Name":"Grand Central Market - Mollie Stone","Street Address":"2435 California Street","City":"San Francisco","State\/Province":"CA","Country":"US","location":{"type":"Point","coordinates":[-122.43,37.79]}},{"Brand":"Starbucks","Store Name":"Target SF West T-2768","Street Address":"2675 Geary Blvd","City":"San Francisco","State\/Province":"CA","Country":"US","location":{"type":"Point","coordinates":[-122.45,37.78]}},{"Brand":"Starbucks","Store Name":"Bush & Van Ness - S.F.","Street Address":"1401 Van Ness Avenue, Mission Bay","City":"San Francisco","State\/Province":"CA","Country":"US","location":{"type":"Point","coordinates":[-122.42,37.79]}},{"Brand":"Starbucks","Store Name":"King & 4th Street","Street Address":"280 King Street","City":"San Francisco","State\/Province":"CA","Country":"US","location":{"type":"Point","coordinates":[-122.39,37.78]}},{"Brand":"Starbucks","Store Name":"425 Battery","Street Address":"425 Battery Street","City":"San Francisco","State\/Province":"CA","Country":"US","location":{"type":"Point","coordinates":[-122.4,37.8]}},{"Brand":"Starbucks","Store Name":"Powell & Sutter","Street Address":"462 Powell Street","City":"San Francisco","State\/Province":"CA","Country":"US","location":{"type":"Point","coordinates":[-122.41,37.79]}},{"Brand":"Starbucks","Store Name":"Geary & Taylor - San Francisco","Street Address":"442 Geary Street","City":"San Francisco","State\/Province":"CA","Country":"US","location":{"type":"Point","coordinates":[-122.41,37.79]}},{"Brand":"Starbucks","Store Name":"333 Market St.","Street Address":"333 Market Street","City":"San Francisco","State\/Province":"CA","Country":"US","location":{"type":"Point","coordinates":[-122.4,37.79]}},{"Brand":"Starbucks","Store Name":"Polk Street","Street Address":"2165 Polk Street, B of A","City":"San Francisco","State\/Province":"CA","Country":"US","location":{"type":"Point","coordinates":[-122.42,37.8]}},{"Brand":"Starbucks","Store Name":"555 California St.","Street Address":"555 California St, The Fillmore Center","City":"San Francisco","State\/Province":"CA","Country":"US","location":{"type":"Point","coordinates":[-122.4,37.79]}},{"Brand":"Starbucks","Store Name":"Fillmore & O'Farrell","Street Address":"1501 Fillmore Street","City":"San Francisco","State\/Province":"CA","Country":"US","location":{"type":"Point","coordinates":[-122.43,37.78]}},{"Brand":"Starbucks","Store Name":"Macy's-Union Square 4th Floor","Street Address":"170 O'Farrell St","City":"San Francisco","State\/Province":"CA","Country":"US","location":{"type":"Point","coordinates":[-122.41,37.79]}},{"Brand":"Starbucks","Store Name":"Fillmore","Street Address":"2222 Fillmore Street","City":"San Francisco","State\/Province":"CA","Country":"US","location":{"type":"Point","coordinates":[-122.43,37.79]}},{"Brand":"Starbucks","Store Name":"564 Market Street","Street Address":"564 Market Street","City":"San Francisco","State\/Province":"CA","Country":"US","location":{"type":"Point","coordinates":[-122.4,37.79]}},{"Brand":"Starbucks","Store Name":"9th & Howard","Street Address":"1298 Howard Street","City":"San Francisco","State\/Province":"CA","Country":"US","location":{"type":"Point","coordinates":[-122.41,37.78]}},{"Brand":"Starbucks","Store Name":"Chestnut","Street Address":"2132 Chestnut Street","City":"San Francisco","State\/Province":"CA","Country":"US","location":{"type":"Point","coordinates":[-122.44,37.8]}},{"Brand":"Starbucks","Store Name":"74 New Montgomery","Street Address":"74 New Montgomery Street, Suite 100","City":"San Francisco","State\/Province":"CA","Country":"US","location":{"type":"Point","coordinates":[-122.4,37.79]}},{"Brand":"Starbucks","Store Name":"390 Stockton at Sutter (Union Sq)","Street Address":"390 Stockton Street","City":"San Francisco","State\/Province":"CA","Country":"US","location":{"type":"Point","coordinates":[-122.41,37.79]}},{"Brand":"Starbucks","Store Name":"Kansas & 16th St","Street Address":"350 Rhode Island","City":"San Francisco","State\/Province":"CA","Country":"US","location":{"type":"Point","coordinates":[-122.4,37.77]}},{"Brand":"Starbucks","Store Name":"Grant & Bush","Street Address":"359 Grant Avenue","City":"San Francisco","State\/Province":"CA","Country":"US","location":{"type":"Point","coordinates":[-122.41,37.79]}},{"Brand":"Starbucks","Store Name":"Safeway-San Franscisco #1507","Street Address":"2020 Market St.","City":"San Francisco","State\/Province":"CA","Country":"US","location":{"type":"Point","coordinates":[-122.43,37.77]}},{"Brand":"Starbucks","Store Name":"4th & Market - S.F.","Street Address":"780 Market Street","City":"San Francisco","State\/Province":"CA","Country":"US","location":{"type":"Point","coordinates":[-122.41,37.79]}},{"Brand":"Starbucks","Store Name":"675 Portola - Miraloma","Street Address":"675 Portola Drive","City":"San Francisco","State\/Province":"CA","Country":"US","location":{"type":"Point","coordinates":[-122.45,37.74]}},{"Brand":"Starbucks","Store Name":"Bay & Taylor","Street Address":"499 Bay Street","City":"San Francisco","State\/Province":"CA","Country":"US","location":{"type":"Point","coordinates":[-122.42,37.81]}},{"Brand":"Starbucks","Store Name":"SFO - International Terminal - Spac","Street Address":"San Francisco International Airport","City":"San Francisco","State\/Province":"CA","Country":"US","location":{"type":"Point","coordinates":[-122.39,37.62]}},{"Brand":"Starbucks","Store Name":"123 Mission Street","Street Address":"123 Mission Street, Fox Plaza","City":"San Francisco","State\/Province":"CA","Country":"US","location":{"type":"Point","coordinates":[-122.39,37.79]}},{"Brand":"Starbucks","Store Name":"Fox Plaza","Street Address":"1390 Market Street, 107","City":"San Francisco","State\/Province":"CA","Country":"US","location":{"type":"Point","coordinates":[-122.42,37.78]}},{"Brand":"Starbucks","Store Name":"3rd & Mission Bay Blvd","Street Address":"1375 3rd Street, San Francisco Centre","City":"San Francisco","State\/Province":"CA","Country":"US","location":{"type":"Point","coordinates":[-122.39,37.77]}},{"Brand":"Starbucks","Store Name":"865 Market - SF Centre","Street Address":"865 Market Street, C 26A","City":"San Francisco","State\/Province":"CA","Country":"US","location":{"type":"Point","coordinates":[-122.41,37.78]}},{"Brand":"Starbucks","Store Name":"19th and Irving","Street Address":"1800 Irving Street, Convention Plaza, Ground Floor","City":"San Francisco","State\/Province":"CA","Country":"US","location":{"type":"Point","coordinates":[-122.48,37.76]}},{"Brand":"Starbucks","Store Name":"3rd & Howard","Street Address":"201 3rd St.","City":"San Francisco","State\/Province":"CA","Country":"US","location":{"type":"Point","coordinates":[-122.4,37.78]}},{"Brand":"Starbucks","Store Name":"24th & Noe","Street Address":"3995 24th Street","City":"San Francisco","State\/Province":"CA","Country":"US","location":{"type":"Point","coordinates":[-122.43,37.75]}},{"Brand":"Starbucks","Store Name":"Owens & 16th","Street Address":"1700 Owens Street, Third & Market","City":"San Francisco","State\/Province":"CA","Country":"US","location":{"type":"Point","coordinates":[-122.39,37.77]}},{"Brand":"Starbucks","Store Name":"Third & Market","Street Address":"7 Third Street","City":"San Francisco","State\/Province":"CA","Country":"US","location":{"type":"Point","coordinates":[-122.4,37.79]}},{"Brand":"Starbucks","Store Name":"One Market","Street Address":"1 Market Plaza, SP6","City":"San Francisco","State\/Province":"CA","Country":"US","location":{"type":"Point","coordinates":[-122.39,37.79]}},{"Brand":"Starbucks","Store Name":"80th & Second","Street Address":"245 East 80th St","City":"New York","State\/Province":"NY","Country":"US","location":{"type":"Point","coordinates":[-73.95,40.77]}},{"Brand":"Starbucks","Store Name":"Nassau & Fulton","Street Address":"130 Fulton Street","City":"New York","State\/Province":"NY","Country":"US","location":{"type":"Point","coordinates":[-74.01,40.71]}},{"Brand":"Starbucks","Store Name":"49th & 8th","Street Address":"825 Eighth Avenue, W-9","City":"New York","State\/Province":"NY","Country":"US","location":{"type":"Point","coordinates":[-73.99,40.76]}},{"Brand":"Starbucks","Store Name":"Spring and Varick","Street Address":"150 Varick Street, The Lyric Building","City":"New York","State\/Province":"NY","Country":"US","location":{"type":"Point","coordinates":[-74.01,40.73]}},{"Brand":"Starbucks","Store Name":"95th & Broadway","Street Address":"2521 Broadway","City":"New York","State\/Province":"NY","Country":"US","location":{"type":"Point","coordinates":[-73.97,40.79]}},{"Brand":"Starbucks","Store Name":"Macy's 6th Floor","Street Address":"151 W. 34th Street","City":"New York","State\/Province":"NY","Country":"US","location":{"type":"Point","coordinates":[-73.99,40.75]}},{"Brand":"Starbucks","Store Name":"87th & Third","Street Address":"1542 Third Avenue","City":"New York","State\/Province":"NY","Country":"US","location":{"type":"Point","coordinates":[-73.95,40.78]}},{"Brand":"Starbucks","Store Name":"26th between 10th and 11th","Street Address":"525 West 26th St","City":"New York","State\/Province":"NY","Country":"US","location":{"type":"Point","coordinates":[-74.0,40.75]}},{"Brand":"Starbucks","Store Name":"57th & Eighth","Street Address":"250 W 57th St","City":"New York","State\/Province":"NY","Country":"US","location":{"type":"Point","coordinates":[-73.98,40.77]}},{"Brand":"Starbucks","Store Name":"88th & Broadway","Street Address":"2394 Broadway","City":"New York","State\/Province":"NY","Country":"US","location":{"type":"Point","coordinates":[-73.98,40.79]}},{"Brand":"Starbucks","Store Name":"99th & Broadway","Street Address":"2621 Broadway","City":"New York","State\/Province":"NY","Country":"US","location":{"type":"Point","coordinates":[-73.97,40.8]}},{"Brand":"Starbucks","Store Name":"92nd & Third","Street Address":"1642 Third Avenue","City":"New York","State\/Province":"NY","Country":"US","location":{"type":"Point","coordinates":[-73.95,40.78]}},{"Brand":"Starbucks","Store Name":"63rd & Lexington","Street Address":"822 Lexington Ave","City":"New York","State\/Province":"NY","Country":"US","location":{"type":"Point","coordinates":[-73.97,40.76]}},{"Brand":"Starbucks","Store Name":"15th & 3rd","Street Address":"145 Third Avenue","City":"New York","State\/Province":"NY","Country":"US","location":{"type":"Point","coordinates":[-73.99,40.73]}},{"Brand":"Starbucks","Store Name":"Macy's 3rd Floor","Street Address":"151 W. 34th Street, Room 900","City":"New York","State\/Province":"NY","Country":"US","location":{"type":"Point","coordinates":[-73.99,40.75]}},{"Brand":"Starbucks","Store Name":"Broadway and Bond","Street Address":"665 Broadway","City":"New York","State\/Province":"NY","Country":"US","location":{"type":"Point","coordinates":[-74.0,40.73]}},{"Brand":"Starbucks","Store Name":"124th and Broadway","Street Address":"3165 Broadway, 3167","City":"New York","State\/Province":"NY","Country":"US","location":{"type":"Point","coordinates":[-73.96,40.82]}},{"Brand":"Starbucks","Store Name":"34th & Park","Street Address":"3 Park Avenue","City":"New York","State\/Province":"NY","Country":"US","location":{"type":"Point","coordinates":[-73.98,40.75]}},{"Brand":"Starbucks","Store Name":"45th & 5th","Street Address":"2 West 45th","City":"New York","State\/Province":"NY","Country":"US","location":{"type":"Point","coordinates":[-73.98,40.76]}},{"Brand":"Starbucks","Store Name":"63rd & Broadway","Street Address":"1889 Broadway","City":"New York","State\/Province":"NY","Country":"US","location":{"type":"Point","coordinates":[-73.98,40.77]}},{"Brand":"Starbucks","Store Name":"51st btwn Park & Madison","Street Address":"45 E. 51st Street","City":"New York","State\/Province":"NY","Country":"US","location":{"type":"Point","coordinates":[-73.97,40.76]}},{"Brand":"Starbucks","Store Name":"52nd Btwn Fifth & Sixth","Street Address":"1290 Sixth Avenue","City":"New York","State\/Province":"NY","Country":"US","location":{"type":"Point","coordinates":[-73.98,40.76]}},{"Brand":"Starbucks","Store Name":"96th & Lexington","Street Address":"1491 Lexington Avenue","City":"New York","State\/Province":"NY","Country":"US","location":{"type":"Point","coordinates":[-73.95,40.79]}},{"Brand":"Starbucks","Store Name":"Marriott Marquis - Street Level","Street Address":"1535 Broadway","City":"New York","State\/Province":"NY","Country":"US","location":{"type":"Point","coordinates":[-73.99,40.76]}},{"Brand":"Starbucks","Store Name":"50th & 2nd","Street Address":"943 Second Avenue","City":"New York","State\/Province":"NY","Country":"US","location":{"type":"Point","coordinates":[-73.97,40.76]}},{"Brand":"Starbucks","Store Name":"46th between 6th and 5th","Street Address":"55 West 46th st, Broadway at 81st","City":"New York","State\/Province":"NY","Country":"US","location":{"type":"Point","coordinates":[-73.98,40.76]}},{"Brand":"Teavana","Store Name":"Teavana - Broadway at 81st","Street Address":"2261 Broadway","City":"New York","State\/Province":"NY","Country":"US","location":{"type":"Point","coordinates":[-73.98,40.79]}},{"Brand":"Starbucks","Store Name":"Pearl & Hanover","Street Address":"110 Pearl Street","City":"New York","State\/Province":"NY","Country":"US","location":{"type":"Point","coordinates":[-74.01,40.7]}},{"Brand":"Starbucks","Store Name":"8th & 16th","Street Address":"124 Eighth Avenue","City":"New York","State\/Province":"NY","Country":"US","location":{"type":"Point","coordinates":[-74.0,40.74]}},{"Brand":"Starbucks","Store Name":"42nd & 9th","Street Address":"350 West 42nd Street","City":"New York","State\/Province":"NY","Country":"US","location":{"type":"Point","coordinates":[-73.99,40.76]}},{"Brand":"Starbucks","Store Name":"32nd & 2nd","Street Address":"585 2nd Avenue","City":"New York","State\/Province":"NY","Country":"US","location":{"type":"Point","coordinates":[-73.98,40.74]}},{"Brand":"Starbucks","Store Name":"195 Broadway","Street Address":"195 Broadway","City":"New York","State\/Province":"NY","Country":"US","location":{"type":"Point","coordinates":[-74.01,40.71]}},{"Brand":"Starbucks","Store Name":"23rd & Park","Street Address":"304 Park Avenue South","City":"New York","State\/Province":"NY","Country":"US","location":{"type":"Point","coordinates":[-73.99,40.74]}},{"Brand":"Starbucks","Store Name":"76th & Second","Street Address":"1449 Second Avenue","City":"New York","State\/Province":"NY","Country":"US","location":{"type":"Point","coordinates":[-73.96,40.77]}},{"Brand":"Starbucks","Store Name":"23rd & 1st","Street Address":"400 E 23rd st","City":"New York","State\/Province":"NY","Country":"US","location":{"type":"Point","coordinates":[-73.98,40.74]}},{"Brand":"Starbucks","Store Name":"UNIQLO @ 53rd & Fifth","Street Address":"666 Fifth Avenue, 2nd floor","City":"New York","State\/Province":"NY","Country":"US","location":{"type":"Point","coordinates":[-73.98,40.76]}},{"Brand":"Starbucks","Store Name":"81st & Columbus","Street Address":"444 Columbus Avenue","City":"New York","State\/Province":"NY","Country":"US","location":{"type":"Point","coordinates":[-73.97,40.78]}},{"Brand":"Starbucks","Store Name":"2nd Ave. & 9th Street","Street Address":"145 2nd Avenue","City":"New York","State\/Province":"NY","Country":"US","location":{"type":"Point","coordinates":[-73.99,40.73]}},{"Brand":"Starbucks","Store Name":"17th & 1st","Street Address":"286 First Avenue, A","City":"New York","State\/Province":"NY","Country":"US","location":{"type":"Point","coordinates":[-73.98,40.73]}},{"Brand":"Starbucks","Store Name":"Union Square West","Street Address":"25 Union Square West, 25","City":"New York","State\/Province":"NY","Country":"US","location":{"type":"Point","coordinates":[-73.99,40.74]}},{"Brand":"Starbucks","Store Name":"Target East River Plaza T-2380","Street Address":"517 E 117th St","City":"New York","State\/Province":"NY","Country":"US","location":{"type":"Point","coordinates":[-73.93,40.8]}},{"Brand":"Starbucks","Store Name":"Greenwich Ave at Bank St","Street Address":"93 Greenwich Avenue","City":"New York","State\/Province":"NY","Country":"US","location":{"type":"Point","coordinates":[-74.0,40.74]}},{"Brand":"Starbucks","Store Name":"47th & Broadway","Street Address":"1585 Broadway","City":"New York","State\/Province":"NY","Country":"US","location":{"type":"Point","coordinates":[-73.99,40.76]}},{"Brand":"Starbucks","Store Name":"19th & Park","Street Address":"240 Park Avenue South","City":"New York","State\/Province":"NY","Country":"US","location":{"type":"Point","coordinates":[-73.99,40.74]}},{"Brand":"Starbucks","Store Name":"66th & Third","Street Address":"1128 Third Avenue","City":"New York","State\/Province":"NY","Country":"US","location":{"type":"Point","coordinates":[-73.96,40.77]}},{"Brand":"Starbucks","Store Name":"53rd & Sixth (NE Corner)","Street Address":"1330 6th Ave.","City":"New York","State\/Province":"NY","Country":"US","location":{"type":"Point","coordinates":[-73.98,40.76]}},{"Brand":"Starbucks","Store Name":"55th & Lex","Street Address":"655 Lexington Avenue","City":"New York","State\/Province":"NY","Country":"US","location":{"type":"Point","coordinates":[-73.97,40.76]}},{"Brand":"Starbucks","Store Name":"59th & Columbus","Street Address":"2 Columbus Avenue","City":"New York","State\/Province":"NY","Country":"US","location":{"type":"Point","coordinates":[-73.98,40.77]}},{"Brand":"Starbucks","Store Name":"Empire State Building","Street Address":"350 Fifth Avenue","City":"New York","State\/Province":"NY","Country":"US","location":{"type":"Point","coordinates":[-73.99,40.75]}},{"Brand":"Starbucks","Store Name":"69th & First","Street Address":"1281 First Avenue","City":"New York","State\/Province":"NY","Country":"US","location":{"type":"Point","coordinates":[-73.96,40.77]}},{"Brand":"Starbucks","Store Name":"NHL store @ 47th & Sixth","Street Address":"1185 Avenue of the Americas","City":"New York","State\/Province":"NY","Country":"US","location":{"type":"Point","coordinates":[-73.98,40.76]}},{"Brand":"Starbucks","Store Name":"Secure Access: 55th & Sixth","Street Address":"1345 6th Ave","City":"New York","State\/Province":"NY","Country":"US","location":{"type":"Point","coordinates":[-73.98,40.76]}},{"Brand":"Starbucks","Store Name":"Church Street & Murray","Street Address":"120 Church Street","City":"New York","State\/Province":"NY","Country":"US","location":{"type":"Point","coordinates":[-74.01,40.71]}},{"Brand":"Starbucks","Store Name":"100 Williams Street","Street Address":"100 William Street","City":"New York","State\/Province":"NY","Country":"US","location":{"type":"Point","coordinates":[-74.01,40.71]}},{"Brand":"Starbucks","Store Name":"Starbucks Level 3 Jacob Javits Cemt","Street Address":"655 W 34th St","City":"New York","State\/Province":"NY","Country":"US","location":{"type":"Point","coordinates":[-74.0,40.76]}},{"Brand":"Starbucks","Store Name":"State St & Pearl Streets","Street Address":"1 Battery Park Plaza","City":"New York","State\/Province":"NY","Country":"US","location":{"type":"Point","coordinates":[-74.01,40.7]}},{"Brand":"Starbucks","Store Name":"56th Btwn Sixth & Seventh","Street Address":"120 W. 56th Street","City":"New York","State\/Province":"NY","Country":"US","location":{"type":"Point","coordinates":[-73.98,40.76]}},{"Brand":"Starbucks","Store Name":"43rd & 9th","Street Address":"593 Ninth Ave","City":"New York","State\/Province":"NY","Country":"US","location":{"type":"Point","coordinates":[-73.99,40.76]}},{"Brand":"Starbucks","Store Name":"53rd Inside Park Ave Plaza","Street Address":"55 East 52nd Street","City":"New York","State\/Province":"NY","Country":"US","location":{"type":"Point","coordinates":[-73.97,40.76]}},{"Brand":"Starbucks","Store Name":"Trump Tower @ 57th & Fifth","Street Address":"725 5th Avenue","City":"New York","State\/Province":"NY","Country":"US","location":{"type":"Point","coordinates":[-73.97,40.76]}},{"Brand":"Starbucks","Store Name":"8th Ave just south of 14th St","Street Address":"122 Greenwich Avenue, (space A)","City":"New York","State\/Province":"NY","Country":"US","location":{"type":"Point","coordinates":[-74.0,40.74]}},{"Brand":"Starbucks","Store Name":"Houston & W. Broadway","Street Address":"482 West Broadway","City":"New York","State\/Province":"NY","Country":"US","location":{"type":"Point","coordinates":[-74.0,40.73]}},{"Brand":"Starbucks","Store Name":"63rd & 3rd Ave","Street Address":"1077 3rd Avenue","City":"New York","State\/Province":"NY","Country":"US","location":{"type":"Point","coordinates":[-73.96,40.76]}},{"Brand":"Starbucks","Store Name":"New York University","Street Address":"45 West 4th Street","City":"New York","State\/Province":"NY","Country":"US","location":{"type":"Point","coordinates":[-74.0,40.73]}},{"Brand":"Starbucks","Store Name":"Penn Station by A,C,E","Street Address":"1 Penn Plaza Concourse Level","City":"New York","State\/Province":"NY","Country":"US","location":{"type":"Point","coordinates":[-73.99,40.75]}},{"Brand":"Starbucks","Store Name":"93rd and Broadway","Street Address":"2498 Broadway","City":"New York","State\/Province":"NY","Country":"US","location":{"type":"Point","coordinates":[-73.97,40.79]}},{"Brand":"Starbucks","Store Name":"41st & Madison","Street Address":"295 Madison Avenue","City":"New York","State\/Province":"NY","Country":"US","location":{"type":"Point","coordinates":[-73.98,40.75]}},{"Brand":"Starbucks","Store Name":"42nd btwn 3rd & Lex","Street Address":"150 E. 42nd Street","City":"New York","State\/Province":"NY","Country":"US","location":{"type":"Point","coordinates":[-73.98,40.75]}},{"Brand":"Starbucks","Store Name":"86th & Columbus","Street Address":"540 Columbus Avenue","City":"New York","State\/Province":"NY","Country":"US","location":{"type":"Point","coordinates":[-73.97,40.79]}},{"Brand":"Starbucks","Store Name":"48th & Lex","Street Address":"511 Lexington Avenue","City":"New York","State\/Province":"NY","Country":"US","location":{"type":"Point","coordinates":[-73.97,40.76]}},{"Brand":"Starbucks","Store Name":"33rd btwn 5th & 6th","Street Address":"350 Fifth Avenue, 130, The Capitol At Chelsea","City":"New York","State\/Province":"NY","Country":"US","location":{"type":"Point","coordinates":[-73.99,40.75]}},{"Brand":"Starbucks","Store Name":"27th & 6th","Street Address":"776 Avenue of the Americas","City":"New York","State\/Province":"NY","Country":"US","location":{"type":"Point","coordinates":[-73.99,40.75]}},{"Brand":"Starbucks","Store Name":"W Broadway & Leonard Street","Street Address":"180 West Broadway","City":"New York","State\/Province":"NY","Country":"US","location":{"type":"Point","coordinates":[-74.01,40.72]}},{"Brand":"Starbucks","Store Name":"42nd & 8th","Street Address":"251 West 42nd Street","City":"New York","State\/Province":"NY","Country":"US","location":{"type":"Point","coordinates":[-73.99,40.76]}},{"Brand":"Starbucks","Store Name":"14th & Sixth","Street Address":"510 Sixth Avenue","City":"New York","State\/Province":"NY","Country":"US","location":{"type":"Point","coordinates":[-74.0,40.74]}},{"Brand":"Starbucks","Store Name":"49th & Madison","Street Address":"425 Madison Avenue","City":"New York","State\/Province":"NY","Country":"US","location":{"type":"Point","coordinates":[-73.98,40.76]}},{"Brand":"Starbucks","Store Name":"6th between 39th and 40th","Street Address":"1040 Sixth Avenue","City":"New York","State\/Province":"NY","Country":"US","location":{"type":"Point","coordinates":[-73.99,40.75]}},{"Brand":"Starbucks","Store Name":"3rd St & First Avenue","Street Address":"49 -1\/2 First Avenue","City":"New York","State\/Province":"NY","Country":"US","location":{"type":"Point","coordinates":[-73.99,40.72]}},{"Brand":"Starbucks","Store Name":"43rd & Lex","Street Address":"425 Lexington","City":"New York","State\/Province":"NY","Country":"US","location":{"type":"Point","coordinates":[-73.98,40.75]}},{"Brand":"Starbucks","Store Name":"125th & Adam Clayton","Street Address":"201 W. 125th Street","City":"New York","State\/Province":"NY","Country":"US","location":{"type":"Point","coordinates":[-73.95,40.81]}},{"Brand":"Starbucks","Store Name":"58th & Eight","Street Address":"4 Columbus Circle","City":"New York","State\/Province":"NY","Country":"US","location":{"type":"Point","coordinates":[-73.98,40.77]}},{"Brand":"Starbucks","Store Name":"145th & Bradhurst","Street Address":"301 W. 145th St.","City":"New York","State\/Province":"NY","Country":"US","location":{"type":"Point","coordinates":[-73.94,40.82]}},{"Brand":"Starbucks","Store Name":"1st btwn 53rd & 54th","Street Address":"969 1st Ave","City":"New York","State\/Province":"NY","Country":"US","location":{"type":"Point","coordinates":[-73.96,40.76]}},{"Brand":"Starbucks","Store Name":"76th & Columbus","Street Address":"338 Columbus Avenue","City":"New York","State\/Province":"NY","Country":"US","location":{"type":"Point","coordinates":[-73.98,40.78]}},{"Brand":"Starbucks","Store Name":"58th & Sixth","Street Address":"1411 Sixth Avenue, Metropolitan Tower","City":"New York","State\/Province":"NY","Country":"US","location":{"type":"Point","coordinates":[-73.98,40.76]}},{"Brand":"Starbucks","Store Name":"57th & Seventh","Street Address":"142 W. 57th Street","City":"New York","State\/Province":"NY","Country":"US","location":{"type":"Point","coordinates":[-73.98,40.76]}},{"Brand":"Starbucks","Store Name":"JP Morgan New York Plaza - 14th FL","Street Address":"4 New York Plaza, 14th Floor","City":"New York","State\/Province":"NY","Country":"US","location":{"type":"Point","coordinates":[-74.01,40.7]}},{"Brand":"Starbucks","Store Name":"25th & Lex","Street Address":"50 Lexington Avenue","City":"New York","State\/Province":"NY","Country":"US","location":{"type":"Point","coordinates":[-73.98,40.74]}},{"Brand":"Starbucks","Store Name":"42nd & Madison","Street Address":"11 East 42nd St.","City":"New York","State\/Province":"NY","Country":"US","location":{"type":"Point","coordinates":[-73.98,40.75]}},{"Brand":"Starbucks","Store Name":"42nd & 2nd","Street Address":"220 East 42nd St, Manhattan Mall","City":"New York","State\/Province":"NY","Country":"US","location":{"type":"Point","coordinates":[-73.97,40.75]}},{"Brand":"Starbucks","Store Name":"Manhattan Mall 1st Floor","Street Address":"100 W 33rd St","City":"New York","State\/Province":"NY","Country":"US","location":{"type":"Point","coordinates":[-73.99,40.75]}},{"Brand":"Starbucks","Store Name":"110th & Manhattan","Street Address":"321 W 110th Street","City":"New York","State\/Province":"NY","Country":"US","location":{"type":"Point","coordinates":[-73.96,40.8]}},{"Brand":"Starbucks","Store Name":"Park Row at Beekman St","Street Address":"38 Park Row, #4","City":"New York","State\/Province":"NY","Country":"US","location":{"type":"Point","coordinates":[-74.01,40.71]}},{"Brand":"Starbucks","Store Name":"West 23rd and 8th","Street Address":"300 W 23rd St.","City":"New York","State\/Province":"NY","Country":"US","location":{"type":"Point","coordinates":[-74.0,40.75]}},{"Brand":"Starbucks","Store Name":"93rd & Second","Street Address":"245 East 93rd St","City":"New York","State\/Province":"NY","Country":"US","location":{"type":"Point","coordinates":[-73.95,40.78]}},{"Brand":"Starbucks","Store Name":"60 Wall St","Street Address":"60 Wall St","City":"New York","State\/Province":"NY","Country":"US","location":{"type":"Point","coordinates":[-74.01,40.71]}},{"Brand":"Starbucks","Store Name":"23rd btwn 5th & 6th","Street Address":"14 W. 23rd St","City":"New York","State\/Province":"NY","Country":"US","location":{"type":"Point","coordinates":[-73.99,40.74]}},{"Brand":"Starbucks","Store Name":"24th & 6th","Street Address":"750 6th Avenue","City":"New York","State\/Province":"NY","Country":"US","location":{"type":"Point","coordinates":[-73.99,40.74]}},{"Brand":"Starbucks","Store Name":"47th & 8th","Street Address":"770 Eighth Ave","City":"New York","State\/Province":"NY","Country":"US","location":{"type":"Point","coordinates":[-73.99,40.76]}},{"Brand":"Starbucks","Store Name":"Columbus Circle Subway","Street Address":"1000 S Eighth Avenue, #34","City":"New York","State\/Province":"NY","Country":"US","location":{"type":"Point","coordinates":[-73.98,40.77]}},{"Brand":"Starbucks","Store Name":"Broadway & Canal","Street Address":"405 Broadway","City":"New York","State\/Province":"NY","Country":"US","location":{"type":"Point","coordinates":[-74.0,40.72]}},{"Brand":"Starbucks","Store Name":"49th & Park","Street Address":"280 Park Avenue","City":"New York","State\/Province":"NY","Country":"US","location":{"type":"Point","coordinates":[-73.97,40.76]}},{"Brand":"Starbucks","Store Name":"43rd & 8th","Street Address":"684 Eighth Avenue","City":"New York","State\/Province":"NY","Country":"US","location":{"type":"Point","coordinates":[-73.99,40.76]}},{"Brand":"Starbucks","Store Name":"78th & Lexington","Street Address":"1117 Lexington Ave., #4","City":"New York","State\/Province":"NY","Country":"US","location":{"type":"Point","coordinates":[-73.96,40.77]}},{"Brand":"Starbucks","Store Name":"181st & Fort Washington","Street Address":"803 W 181st St","City":"New York","State\/Province":"NY","Country":"US","location":{"type":"Point","coordinates":[-73.94,40.85]}},{"Brand":"Starbucks","Store Name":"Spring Street at Crosby St","Street Address":"72 SPRING STREET","City":"New York","State\/Province":"NY","Country":"US","location":{"type":"Point","coordinates":[-74.0,40.72]}},{"Brand":"Starbucks","Store Name":"42nd & Park","Street Address":"125 Park Ave","City":"New York","State\/Province":"NY","Country":"US","location":{"type":"Point","coordinates":[-73.98,40.75]}},{"Brand":"Starbucks","Store Name":"60th and Broadway","Street Address":"1841 Broadway","City":"New York","State\/Province":"NY","Country":"US","location":{"type":"Point","coordinates":[-73.98,40.77]}},{"Brand":"Starbucks","Store Name":"40th & Lex","Street Address":"360 Lexington Avenue","City":"New York","State\/Province":"NY","Country":"US","location":{"type":"Point","coordinates":[-73.98,40.75]}},{"Brand":"Starbucks","Store Name":"49th & Seventh","Street Address":"750 Seventh Avenue","City":"New York","State\/Province":"NY","Country":"US","location":{"type":"Point","coordinates":[-73.98,40.76]}},{"Brand":"Starbucks","Store Name":"23rd & 3rd","Street Address":"296-300 Third Avenue","City":"New York","State\/Province":"NY","Country":"US","location":{"type":"Point","coordinates":[-73.98,40.74]}},{"Brand":"Starbucks","Store Name":"96th & Madison","Street Address":"1378 Madison Avenue","City":"New York","State\/Province":"NY","Country":"US","location":{"type":"Point","coordinates":[-73.95,40.79]}},{"Brand":"Starbucks","Store Name":"28th & 7th","Street Address":"315 Seventh Avenue","City":"New York","State\/Province":"NY","Country":"US","location":{"type":"Point","coordinates":[-73.99,40.75]}},{"Brand":"Starbucks","Store Name":"Macy's 2nd Floor","Street Address":"151 W. 34th Street","City":"New York","State\/Province":"NY","Country":"US","location":{"type":"Point","coordinates":[-73.99,40.75]}},{"Brand":"Starbucks","Store Name":"111th & Broadway","Street Address":"2853 Broadway","City":"New York","State\/Province":"NY","Country":"US","location":{"type":"Point","coordinates":[-73.97,40.8]}},{"Brand":"Starbucks","Store Name":"35th & 7th","Street Address":"462 7th Avenue","City":"New York","State\/Province":"NY","Country":"US","location":{"type":"Point","coordinates":[-73.99,40.75]}},{"Brand":"Starbucks","Store Name":"118th & Frederick Douglas Blvd.","Street Address":"2195 Frederick Douglas Boulevard","City":"New York","State\/Province":"NY","Country":"US","location":{"type":"Point","coordinates":[-73.95,40.81]}},{"Brand":"Starbucks","Store Name":"56th & Sixth","Street Address":"1380 Sixth Avenue","City":"New York","State\/Province":"NY","Country":"US","location":{"type":"Point","coordinates":[-73.98,40.76]}},{"Brand":"Starbucks","Store Name":"58th Btwn Madison & Fifth","Street Address":"600 Madison Avenue","City":"New York","State\/Province":"NY","Country":"US","location":{"type":"Point","coordinates":[-73.97,40.76]}},{"Brand":"Starbucks","Store Name":"13th & 1st","Street Address":"219 First Avenue","City":"New York","State\/Province":"NY","Country":"US","location":{"type":"Point","coordinates":[-73.98,40.73]}},{"Brand":"Starbucks","Store Name":"45th & Park","Street Address":"230 Park Avenue","City":"New York","State\/Province":"NY","Country":"US","location":{"type":"Point","coordinates":[-73.98,40.75]}},{"Brand":"Starbucks","Store Name":"34th & 7th","Street Address":"450 7th Avenue","City":"New York","State\/Province":"NY","Country":"US","location":{"type":"Point","coordinates":[-73.99,40.75]}},{"Brand":"Starbucks","Store Name":"48th & 3rd","Street Address":"757 Third Avenue","City":"New York","State\/Province":"NY","Country":"US","location":{"type":"Point","coordinates":[-73.97,40.75]}},{"Brand":"Starbucks","Store Name":"28th & 3rd","Street Address":"393 Third Ave","City":"New York","State\/Province":"NY","Country":"US","location":{"type":"Point","coordinates":[-73.98,40.74]}},{"Brand":"Starbucks","Store Name":"Broadway at Barclay Str","Street Address":"233 Broadway","City":"New York","State\/Province":"NY","Country":"US","location":{"type":"Point","coordinates":[-74.01,40.71]}},{"Brand":"Starbucks","Store Name":"41st & 3rd","Street Address":"639 3rd Avenue, Liberty Plaza","City":"New York","State\/Province":"NY","Country":"US","location":{"type":"Point","coordinates":[-73.97,40.75]}},{"Brand":"Starbucks","Store Name":"165 Broadway - 1 Liberty","Street Address":"165 Broadway","City":"New York","State\/Province":"NY","Country":"US","location":{"type":"Point","coordinates":[-74.01,40.71]}},{"Brand":"Starbucks","Store Name":"Broadway & Reade","Street Address":"291 Broadway","City":"New York","State\/Province":"NY","Country":"US","location":{"type":"Point","coordinates":[-74.01,40.71]}},{"Brand":"Starbucks","Store Name":"2 Broadway","Street Address":"2 Broadway","City":"New York","State\/Province":"NY","Country":"US","location":{"type":"Point","coordinates":[-74.01,40.7]}},{"Brand":"Starbucks","Store Name":"55th & Seventh","Street Address":"870 7th Avenue","City":"New York","State\/Province":"NY","Country":"US","location":{"type":"Point","coordinates":[-73.98,40.76]}},{"Brand":"Starbucks","Store Name":"80th & York","Street Address":"1515 York Avenue","City":"New York","State\/Province":"NY","Country":"US","location":{"type":"Point","coordinates":[-73.95,40.77]}},{"Brand":"Starbucks","Store Name":"ABC 77 West Cafe","Street Address":"47 W 66th St","City":"New York","State\/Province":"NY","Country":"US","location":{"type":"Point","coordinates":[-73.98,40.77]}},{"Brand":"Starbucks","Store Name":"29th & Park","Street Address":"424 Park Avenue South","City":"New York","State\/Province":"NY","Country":"US","location":{"type":"Point","coordinates":[-73.98,40.74]}},{"Brand":"Starbucks","Store Name":"99 Wall Street","Street Address":"99 Wall St.","City":"New York","State\/Province":"NY","Country":"US","location":{"type":"Point","coordinates":[-74.01,40.7]}},{"Brand":"Starbucks","Store Name":"81st & Broadway","Street Address":"2252 Broadway","City":"New York","State\/Province":"NY","Country":"US","location":{"type":"Point","coordinates":[-73.98,40.78]}},{"Brand":"Starbucks","Store Name":"Lafayette & 8th Street","Street Address":"13-25  Astor Place","City":"New York","State\/Province":"NY","Country":"US","location":{"type":"Point","coordinates":[-73.99,40.73]}},{"Brand":"Starbucks","Store Name":"44th & Madison","Street Address":"340 Madison Avenue","City":"New York","State\/Province":"NY","Country":"US","location":{"type":"Point","coordinates":[-73.98,40.75]}},{"Brand":"Starbucks","Store Name":"52nd & Lex","Street Address":"599 Lexington","City":"New York","State\/Province":"NY","Country":"US","location":{"type":"Point","coordinates":[-73.97,40.76]}},{"Brand":"Starbucks","Store Name":"35th & 8th","Street Address":"494 Eighth Ave.","City":"New York","State\/Province":"NY","Country":"US","location":{"type":"Point","coordinates":[-73.99,40.75]}},{"Brand":"Starbucks","Store Name":"52nd & 8th","Street Address":"871 8th Avenue","City":"New York","State\/Province":"NY","Country":"US","location":{"type":"Point","coordinates":[-73.99,40.76]}},{"Brand":"Starbucks","Store Name":"73rd & Columbus","Street Address":"267-275 Columbus Ave","City":"New York","State\/Province":"NY","Country":"US","location":{"type":"Point","coordinates":[-73.98,40.78]}},{"Brand":"Starbucks","Store Name":"Broadway Btwn 37th & 38th","Street Address":"1372 Broadway","City":"New York","State\/Province":"NY","Country":"US","location":{"type":"Point","coordinates":[-73.99,40.75]}},{"Brand":"Starbucks","Store Name":"103rd & Broadway","Street Address":"2690 Broadway","City":"New York","State\/Province":"NY","Country":"US","location":{"type":"Point","coordinates":[-73.97,40.8]}},{"Brand":"Starbucks","Store Name":"Hudson & King","Street Address":"345 Hudson St.","City":"New York","State\/Province":"NY","Country":"US","location":{"type":"Point","coordinates":[-74.01,40.73]}},{"Brand":"Starbucks","Store Name":"Brookfield Place 2","Street Address":"250 Vesey Street, 203","City":"New York","State\/Province":"NY","Country":"US","location":{"type":"Point","coordinates":[-74.02,40.71]}},{"Brand":"Starbucks","Store Name":"87th & Lexington","Street Address":"120 EAST 87TH ST","City":"New York","State\/Province":"NY","Country":"US","location":{"type":"Point","coordinates":[-73.96,40.78]}},{"Brand":"Starbucks","Store Name":"55 Broad Street","Street Address":"55 Broad Street","City":"New York","State\/Province":"NY","Country":"US","location":{"type":"Point","coordinates":[-74.01,40.71]}},{"Brand":"Starbucks","Store Name":"Javits Convention Ctr Taxi North","Street Address":"655 W 34th St","City":"New York","State\/Province":"NY","Country":"US","location":{"type":"Point","coordinates":[-74.0,40.76]}},{"Brand":"Starbucks","Store Name":"39th & Park","Street Address":"90 Park Ave","City":"New York","State\/Province":"NY","Country":"US","location":{"type":"Point","coordinates":[-73.98,40.75]}},{"Brand":"Starbucks","Store Name":"43rd & Madison","Street Address":"335 Madison Avenue","City":"New York","State\/Province":"NY","Country":"US","location":{"type":"Point","coordinates":[-73.98,40.75]}},{"Brand":"Starbucks","Store Name":"31st & 6th","Street Address":"875 Sixth Ave, Grand Central Station","City":"New York","State\/Province":"NY","Country":"US","location":{"type":"Point","coordinates":[-73.99,40.75]}},{"Brand":"Starbucks","Store Name":"Grand Central","Street Address":"7800 Grand Central Station, Track 35","City":"New York","State\/Province":"NY","Country":"US","location":{"type":"Point","coordinates":[-73.98,40.75]}},{"Brand":"Starbucks","Store Name":"Brookfield Place 1","Street Address":"200 Liberty St, L105, 3 New York Plaza","City":"New York","State\/Province":"NY","Country":"US","location":{"type":"Point","coordinates":[-74.02,40.71]}},{"Brand":"Starbucks","Store Name":"Water & Whitehall Streets","Street Address":"2 Water St, Macy's Herald Square","City":"New York","State\/Province":"NY","Country":"US","location":{"type":"Point","coordinates":[-74.01,40.7]}},{"Brand":"Starbucks","Store Name":"Macy's Mezzanine","Street Address":"151 W 34th St","City":"New York","State\/Province":"NY","Country":"US","location":{"type":"Point","coordinates":[-73.99,40.75]}},{"Brand":"Starbucks","Store Name":"43rd & 3rd","Street Address":"685 Third Avenue","City":"New York","State\/Province":"NY","Country":"US","location":{"type":"Point","coordinates":[-73.97,40.75]}},{"Brand":"Starbucks","Store Name":"\u00a051st & Broadway","Street Address":"1656 Broadway","City":"New York","State\/Province":"NY","Country":"US","location":{"type":"Point","coordinates":[-73.98,40.76]}},{"Brand":"Starbucks","Store Name":"53rd & 3rd","Street Address":"875 Third Avenue","City":"New York","State\/Province":"NY","Country":"US","location":{"type":"Point","coordinates":[-73.97,40.76]}},{"Brand":"Starbucks","Store Name":"58th btwn 3rd & Lex","Street Address":"731 Lexington Avenue","City":"New York","State\/Province":"NY","Country":"US","location":{"type":"Point","coordinates":[-73.97,40.76]}},{"Brand":"Starbucks","Store Name":"Broadway & Grand","Street Address":"471 Broadway","City":"New York","State\/Province":"NY","Country":"US","location":{"type":"Point","coordinates":[-74.0,40.72]}},{"Brand":"Starbucks","Store Name":"Union Square East","Street Address":"10 UNION SQUARE EAST, Port Authority Bus Terminal","City":"New York","State\/Province":"NY","Country":"US","location":{"type":"Point","coordinates":[-73.99,40.74]}},{"Brand":"Starbucks","Store Name":"Port Authority South Wing","Street Address":"625 Eighth Avenue, Manhattan Project","City":"New York","State\/Province":"NY","Country":"US","location":{"type":"Point","coordinates":[-73.99,40.76]}},{"Brand":"Teavana","Store Name":"Teavana - Manhattan Project","Street Address":"1291 Lexington Ave., #1291","City":"New York","State\/Province":"NY","Country":"US","location":{"type":"Point","coordinates":[-73.96,40.78]}},{"Brand":"Starbucks","Store Name":"44th & Lex","Street Address":"450 Lexington Avenue","City":"New York","State\/Province":"NY","Country":"US","location":{"type":"Point","coordinates":[-73.97,40.75]}},{"Brand":"Starbucks","Store Name":"84th & Third","Street Address":"1488 Third Avenue #A","City":"New York","State\/Province":"NY","Country":"US","location":{"type":"Point","coordinates":[-73.96,40.78]}},{"Brand":"Starbucks","Store Name":"57th & Lex","Street Address":"135 East 57th Street","City":"New York","State\/Province":"NY","Country":"US","location":{"type":"Point","coordinates":[-73.97,40.76]}},{"Brand":"Starbucks","Store Name":"Allen & Delancey","Street Address":"80 Delancey Street","City":"New York","State\/Province":"NY","Country":"US","location":{"type":"Point","coordinates":[-73.99,40.72]}},{"Brand":"Starbucks","Store Name":"19th & 8th","Street Address":"177 Eighth Avenue","City":"New York","State\/Province":"NY","Country":"US","location":{"type":"Point","coordinates":[-74.0,40.74]}},{"Brand":"Starbucks","Store Name":"239 Bleecker St","Street Address":"239 Bleecker St","City":"New York","State\/Province":"NY","Country":"US","location":{"type":"Point","coordinates":[-74.0,40.73]}},{"Brand":"Starbucks","Store Name":"54th and Broadway","Street Address":"1700 Broadway","City":"New York","State\/Province":"NY","Country":"US","location":{"type":"Point","coordinates":[-73.98,40.76]}},{"Brand":"Starbucks","Store Name":"Lafayette & Worth","Street Address":"111 Worth Street","City":"New York","State\/Province":"NY","Country":"US","location":{"type":"Point","coordinates":[-74.0,40.72]}},{"Brand":"Starbucks","Store Name":"39th & 7th","Street Address":"525 7th Avenue","City":"New York","State\/Province":"NY","Country":"US","location":{"type":"Point","coordinates":[-73.99,40.75]}},{"Brand":"Starbucks","Store Name":"Chambers and West Broadway","Street Address":"125 Chambers Street","City":"New York","State\/Province":"NY","Country":"US","location":{"type":"Point","coordinates":[-74.01,40.72]}},{"Brand":"Starbucks","Store Name":"35th & 5th","Street Address":"373 5th Avenue","City":"New York","State\/Province":"NY","Country":"US","location":{"type":"Point","coordinates":[-73.98,40.75]}},{"Brand":"Starbucks","Store Name":"60th & First","Street Address":"1102 1st Ave","City":"New York","State\/Province":"NY","Country":"US","location":{"type":"Point","coordinates":[-73.96,40.76]}},{"Brand":"Starbucks","Store Name":"Hudson & 10th","Street Address":"518 Hudson Street","City":"New York","State\/Province":"NY","Country":"US","location":{"type":"Point","coordinates":[-74.01,40.73]}},{"Brand":"Starbucks","Store Name":"6th Ave at Walker Street","Street Address":"32 Avenue of the Americas","City":"New York","State\/Province":"NY","Country":"US","location":{"type":"Point","coordinates":[-74.0,40.72]}},{"Brand":"Starbucks","Store Name":"75th & First","Street Address":"1445 First Avenue","City":"New York","State\/Province":"NY","Country":"US","location":{"type":"Point","coordinates":[-73.95,40.77]}},{"Brand":"Starbucks","Store Name":"52nd & 7th","Street Address":"156 W 52nd St","City":"New York","State\/Province":"NY","Country":"US","location":{"type":"Point","coordinates":[-73.98,40.76]}},{"Brand":"Starbucks","Store Name":"15th & Ninth","Street Address":"76 9th Ave","City":"New York","State\/Province":"NY","Country":"US","location":{"type":"Point","coordinates":[-74.0,40.74]}},{"Brand":"Starbucks","Store Name":"85th & Madison","Street Address":"1142 Madison Ave","City":"New York","State\/Province":"NY","Country":"US","location":{"type":"Point","coordinates":[-73.96,40.78]}},{"Brand":"Starbucks","Store Name":"Roosevelt Island","Street Address":"455 Main Street","City":"New York","State\/Province":"NY","Country":"US","location":{"type":"Point","coordinates":[-73.95,40.76]}},{"Brand":"Starbucks","Store Name":"Pearl & Maiden","Street Address":"80 Pine Street","City":"New York","State\/Province":"NY","Country":"US","location":{"type":"Point","coordinates":[-74.01,40.71]}},{"Brand":"Starbucks","Store Name":"6th & Waverly (Waverly Place)","Street Address":"378 6th Avenue","City":"New York","State\/Province":"NY","Country":"US","location":{"type":"Point","coordinates":[-74.0,40.73]}},{"Brand":"Starbucks","Store Name":"60th & Third","Street Address":"1021 Third Avenue","City":"New York","State\/Province":"NY","Country":"US","location":{"type":"Point","coordinates":[-73.97,40.76]}},{"Brand":"Starbucks","Store Name":"10 Waverly Place","Street Address":"10 Waverly Place","City":"New York","State\/Province":"NY","Country":"US","location":{"type":"Point","coordinates":[-73.99,40.73]}},{"Brand":"Starbucks","Store Name":"36th & Madison","Street Address":"200 Madison Avenue","City":"New York","State\/Province":"NY","Country":"US","location":{"type":"Point","coordinates":[-73.98,40.75]}},{"Brand":"Starbucks","Store Name":"26th & Broadway","Street Address":"1140 Broadway","City":"New York","State\/Province":"NY","Country":"US","location":{"type":"Point","coordinates":[-73.99,40.74]}},{"Brand":"Starbucks","Store Name":"31st & 7th","Street Address":"370 7th Avenue","City":"New York","State\/Province":"NY","Country":"US","location":{"type":"Point","coordinates":[-73.99,40.75]}},{"Brand":"Starbucks","Store Name":"32nd btwn 6th & 7th","Street Address":"11 Penn Plaza","City":"New York","State\/Province":"NY","Country":"US","location":{"type":"Point","coordinates":[-73.99,40.75]}},{"Brand":"Starbucks","Store Name":"53rd & Madison","Street Address":"515 Madison Avenue","City":"New York","State\/Province":"NY","Country":"US","location":{"type":"Point","coordinates":[-73.97,40.76]}},{"Brand":"Starbucks","Store Name":"90th & First","Street Address":"400 East 90th Street","City":"New York","State\/Province":"NY","Country":"US","location":{"type":"Point","coordinates":[-73.95,40.78]}},{"Brand":"Starbucks","Store Name":"114th & Broadway","Street Address":"2929 Broadway","City":"New York","State\/Province":"NY","Country":"US","location":{"type":"Point","coordinates":[-73.96,40.81]}},{"Brand":"Starbucks","Store Name":"7th Ave at Grove Street","Street Address":"72 Grove Street","City":"New York","State\/Province":"NY","Country":"US","location":{"type":"Point","coordinates":[-74.0,40.73]}},{"Brand":"Starbucks","Store Name":"14 Wall St","Street Address":"14 Wall St","City":"New York","State\/Province":"NY","Country":"US","location":{"type":"Point","coordinates":[-74.01,40.71]}},{"Brand":"Starbucks","Store Name":"85th & First","Street Address":"1631 1st Ave","City":"New York","State\/Province":"NY","Country":"US","location":{"type":"Point","coordinates":[-73.95,40.78]}},{"Brand":"Starbucks","Store Name":"24th & 7th","Street Address":"229 Seventh Avenue","City":"New York","State\/Province":"NY","Country":"US","location":{"type":"Point","coordinates":[-74.0,40.74]}},{"Brand":"Starbucks","Store Name":"47th & 5th","Street Address":"575 Fifth Avenue","City":"New York","State\/Province":"NY","Country":"US","location":{"type":"Point","coordinates":[-73.98,40.76]}},{"Brand":"Starbucks","Store Name":"Canal and Centre","Street Address":"241 Canal Street","City":"New York","State\/Province":"NY","Country":"US","location":{"type":"Point","coordinates":[-74.0,40.72]}},{"Brand":"Starbucks","Store Name":"42nd & 6th","Street Address":"1100 Avenue of the Americas","City":"New York","State\/Province":"NY","Country":"US","location":{"type":"Point","coordinates":[-73.98,40.75]}},{"Brand":"Starbucks","Store Name":"Rockefeller Center Concourse","Street Address":"30 Rockefeller Plaza, Space A","City":"New York","State\/Province":"NY","Country":"US","location":{"type":"Point","coordinates":[-73.98,40.76]}},{"Brand":"Starbucks","Store Name":"53rd & Sixth (SW Corner)","Street Address":"1301 Avenue of the Americas","City":"New York","State\/Province":"NY","Country":"US","location":{"type":"Point","coordinates":[-73.98,40.76]}},{"Brand":"Starbucks","Store Name":"Water St @ Broad (inside)","Street Address":"1 New York Plaza","City":"New York","State\/Province":"NY","Country":"US","location":{"type":"Point","coordinates":[-74.01,40.7]}},{"Brand":"Starbucks","Store Name":"85th & Lexington","Street Address":"1261 Lexington Avenue","City":"New York","State\/Province":"NY","Country":"US","location":{"type":"Point","coordinates":[-73.96,40.78]}},{"Brand":"Starbucks","Store Name":"29th & 5th","Street Address":"261 Fifth Avenue","City":"New York","State\/Province":"NY","Country":"US","location":{"type":"Point","coordinates":[-73.99,40.75]}},{"Brand":"Starbucks","Store Name":"John & Water Streets","Street Address":"135 John Street","City":"New York","State\/Province":"NY","Country":"US","location":{"type":"Point","coordinates":[-74.0,40.71]}},{"Brand":"Starbucks","Store Name":"40th btwn Madison & 5th","Street Address":"5 East 40th st","City":"New York","State\/Province":"NY","Country":"US","location":{"type":"Point","coordinates":[-73.98,40.75]}},{"Brand":"Starbucks","Store Name":"168th & Broadway","Street Address":"4001 Broadway","City":"New York","State\/Province":"NY","Country":"US","location":{"type":"Point","coordinates":[-73.94,40.84]}},{"Brand":"Starbucks","Store Name":"21st & 5th","Street Address":"4 W. 21st Street","City":"New York","State\/Province":"NY","Country":"US","location":{"type":"Point","coordinates":[-73.99,40.74]}},{"Brand":"Starbucks","Store Name":"39th & 8th","Street Address":"600 Eighth Ave.","City":"New York","State\/Province":"NY","Country":"US","location":{"type":"Point","coordinates":[-73.99,40.76]}},{"Brand":"Starbucks","Store Name":"43rd & Sixth","Street Address":"1101 - 1109 Avenue of the Americas","City":"New York","State\/Province":"NY","Country":"US","location":{"type":"Point","coordinates":[-73.98,40.76]}},{"Brand":"Starbucks","Store Name":"70th & Broadway","Street Address":"2045 Broadway","City":"New York","State\/Province":"NY","Country":"US","location":{"type":"Point","coordinates":[-73.98,40.78]}},{"Brand":"Starbucks","Store Name":"45th btwn Lex & 3rd","Street Address":"2 Grand Central Tower","City":"New York","State\/Province":"NY","Country":"US","location":{"type":"Point","coordinates":[-73.97,40.75]}},{"Brand":"Starbucks","Store Name":"50th & Lex","Street Address":"560 Lexington Avenue","City":"New York","State\/Province":"NY","Country":"US","location":{"type":"Point","coordinates":[-73.97,40.76]}},{"Brand":"Starbucks","Store Name":"Broadway and 9th","Street Address":"771 Broadway","City":"New York","State\/Province":"NY","Country":"US","location":{"type":"Point","coordinates":[-73.99,40.73]}},{"Brand":"Starbucks","Store Name":"36th & 6th","Street Address":"977 Avenue of the Americas","City":"New York","State\/Province":"NY","Country":"US","location":{"type":"Point","coordinates":[-73.99,40.75]}},{"Brand":"Starbucks","Store Name":"54th & Lex","Street Address":"630 Lexington Ave","City":"New York","State\/Province":"NY","Country":"US","location":{"type":"Point","coordinates":[-73.97,40.76]}},{"Brand":"Starbucks","Store Name":"57th & Tenth","Street Address":"475 West 57th st","City":"New York","State\/Province":"NY","Country":"US","location":{"type":"Point","coordinates":[-73.99,40.77]}},{"Brand":"Starbucks","Store Name":"Liberty & Nassau","Street Address":"55 Liberty Street","City":"New York","State\/Province":"NY","Country":"US","location":{"type":"Point","coordinates":[-74.01,40.71]}},{"Brand":"Starbucks","Store Name":"222 Broadway","Street Address":"222 Broadway","City":"New York","State\/Province":"NY","Country":"US","location":{"type":"Point","coordinates":[-74.01,40.71]}},{"Brand":"Starbucks","Store Name":"75th & Broadway","Street Address":"2140 Broadway","City":"New York","State\/Province":"NY","Country":"US","location":{"type":"Point","coordinates":[-73.98,40.78]}},{"Brand":"Starbucks","Store Name":"One Penn Plaza","Street Address":"1 Penn Plaza","City":"New York","State\/Province":"NY","Country":"US","location":{"type":"Point","coordinates":[-73.99,40.75]}},{"Brand":"Starbucks","Store Name":"Broadway & Dyckman","Street Address":"4761 Broadway","City":"New York","State\/Province":"NY","Country":"US","location":{"type":"Point","coordinates":[-73.93,40.87]}},{"Brand":"Starbucks","Store Name":"Broadway & Thames","Street Address":"115 Broadway","City":"New York","State\/Province":"NY","Country":"US","location":{"type":"Point","coordinates":[-74.01,40.71]}},{"Brand":"Starbucks","Store Name":"43rd & Broadway","Street Address":"1500 Broadway","City":"New York","State\/Province":"NY","Country":"US","location":{"type":"Point","coordinates":[-73.99,40.76]}},{"Brand":"Starbucks","Store Name":"57th Btwn Eighth & Ninth","Street Address":"322 West 57th Street","City":"New York","State\/Province":"NY","Country":"US","location":{"type":"Point","coordinates":[-73.98,40.77]}},{"Brand":"Starbucks","Store Name":"100th & Columbus","Street Address":"805 Columbus Avenue, 85 West 125th Street","City":"New York","State\/Province":"NY","Country":"US","location":{"type":"Point","coordinates":[-73.97,40.8]}},{"Brand":"Starbucks","Store Name":"125th & Lenox","Street Address":"77-83 West 125th Street","City":"New York","State\/Province":"NY","Country":"US","location":{"type":"Point","coordinates":[-73.95,40.81]}},{"Brand":"Starbucks","Store Name":"Limited Brands-NYC","Street Address":"1740 Broadway","City":"New York","State\/Province":"NY","Country":"US","location":{"type":"Point","coordinates":[-73.98,40.77]}},{"Brand":"Starbucks","Store Name":"49th btwn 8th & 9th","Street Address":"325 W 49th St","City":"New York","State\/Province":"NY","Country":"US","location":{"type":"Point","coordinates":[-73.99,40.76]}},{"Brand":"Starbucks","Store Name":"22nd & 6th","Street Address":"684 Avenue of the Americas","City":"New York","State\/Province":"NY","Country":"US","location":{"type":"Point","coordinates":[-73.99,40.74]}},{"Brand":"Starbucks","Store Name":"Rockefeller Center Subway","Street Address":"30 Rockefeller Plaza","City":"New York","State\/Province":"NY","Country":"US","location":{"type":"Point","coordinates":[-73.98,40.76]}}]